City,Cloudiness,Country,Date,Humidity,Latitude,Longitude,Max Temperature,Wind Speed
Jamestown,100,US,2022-02-11 05:00:42,51,42.097,-79.2353,29.84,10.36
Sechura,100,PE,2022-02-11 05:00:44,68,-5.5569,-80.8222,73.58,7.81
Marsh Harbour,71,BS,2022-02-11 04:53:42,79,26.5412,-77.0636,72.64,12.15
Saint Paul Harbor,100,US,2022-02-11 05:00:46,80,57.79,-152.4072,35.11,29.93
Katsuura,85,JP,2022-02-11 05:00:48,57,35.1333,140.3,46.51,15.26
Nikolskoye,94,RU,2022-02-11 04:56:12,93,59.7035,30.7861,32.4,8.23
Troitsko-Pechorsk,100,RU,2022-02-11 05:00:48,93,62.7084,56.1964,17.2,11.48
Arman',94,RU,2022-02-11 05:00:49,80,59.7,150.1667,5.25,2.86
Chicama,98,PE,2022-02-11 05:00:49,71,-7.8447,-79.1469,72.55,4.59
Srednekolymsk,22,RU,2022-02-11 04:51:27,95,67.45,153.6833,-29.09,1.83
Klaksvík,95,FO,2022-02-11 04:51:21,67,62.2266,-6.589,38.32,24.29
Billère,100,FR,2022-02-11 05:00:51,81,43.3,-0.4,48.38,2.3
Talaya,92,RU,2022-02-11 04:59:58,88,61.3833,152.75,-23.19,0.22
Busselton,1,AU,2022-02-11 04:57:22,39,-33.65,115.3333,98.1,12.26
Cape Town,0,ZA,2022-02-11 04:58:19,82,-33.9258,18.4232,64.11,6.91
Punta Arenas,84,CL,2022-02-11 05:00:52,65,-53.15,-70.9167,44.11,11.01
Mataura,24,NZ,2022-02-11 05:00:53,59,-46.1927,168.8643,61.48,8.03
Kavieng,96,PG,2022-02-11 04:51:31,73,-2.5744,150.7967,83.01,5.61
Khatanga,14,RU,2022-02-11 05:00:00,83,71.9667,102.5,-0.81,13.49
Salalah,50,OM,2022-02-11 04:51:35,60,17.0151,54.0924,71.69,2.53
Hilo,18,US,2022-02-11 05:00:54,92,19.7297,-155.09,71.8,1.01
Ponta do Sol,100,PT,2022-02-11 05:00:55,49,32.6667,-17.1,65.71,4.38
Hong Kong,34,HK,2022-02-11 04:58:40,77,22.2855,114.1577,69.85,5.99
Asău,100,RO,2022-02-11 04:52:01,90,46.4333,26.4,36.75,7.2
Faanui,26,PF,2022-02-11 05:00:56,72,-16.4833,-151.75,81.72,14.05
Rio de Janeiro,75,BR,2022-02-11 04:58:18,88,-22.9028,-43.2075,74.91,2.3
Qaanaaq,64,GL,2022-02-11 05:00:57,64,77.484,-69.3632,-23.75,5.06
Baghdad,3,IQ,2022-02-11 05:00:08,39,33.3406,44.4009,55.06,3.67
Ushuaia,99,AR,2022-02-11 05:00:58,95,-54.8,-68.3,41.23,3.4
Hobart,40,AU,2022-02-11 04:56:17,48,-42.8794,147.3294,72.1,19.57
Vaini,7,TO,2022-02-11 05:00:59,79,-21.2,-175.2,81.84,16.06
Antofagasta,0,CL,2022-02-11 04:58:57,77,-23.65,-70.4,65.48,3.78
Inverell,49,AU,2022-02-11 05:01:00,35,-29.7833,151.1167,89.11,8.01
Port Hedland,17,AU,2022-02-11 05:01:01,44,-20.3167,118.5667,96.85,18.41
Torbay,75,CA,2022-02-11 04:51:05,90,47.6666,-52.7314,33.76,9.22
Lüderitz,45,NA,2022-02-11 05:01:02,70,-26.6481,15.1594,68.63,8.03
Boden,87,SE,2022-02-11 05:01:03,76,65.8252,21.6886,28.4,8.08
Lebu,0,CL,2022-02-11 05:01:04,78,-37.6167,-73.65,54.64,16.87
Arraial do Cabo,100,BR,2022-02-11 04:57:24,92,-22.9661,-42.0278,72.1,3.91
Saint-Philippe,45,RE,2022-02-11 04:56:08,76,-21.3585,55.7679,82.11,5.88
Mogadishu,40,SO,2022-02-11 04:52:24,78,2.0371,45.3438,76.87,13.8
Kargasok,37,RU,2022-02-11 05:01:05,96,59.0556,80.8572,-7.44,2.8
Los Llanos de Aridane,20,ES,2022-02-11 04:51:28,30,28.6585,-17.9182,67.12,11.99
Kununurra,75,AU,2022-02-11 04:57:44,52,-15.7667,128.7333,94.98,5.75
Karratha,30,AU,2022-02-11 05:01:06,51,-20.7377,116.8463,92.19,18.7
Port Alfred,3,ZA,2022-02-11 05:01:07,82,-33.5906,26.891,68.85,4.59
Vila Franca do Campo,98,PT,2022-02-11 04:51:12,73,37.7167,-25.4333,58.19,4.36
Abbeville,3,FR,2022-02-11 05:01:07,91,50.1,1.8333,39.16,6.44
Bengkulu,100,ID,2022-02-11 05:01:08,63,-3.8004,102.2655,82.78,5.39
Albany,42,US,2022-02-11 04:59:46,89,42.6001,-73.9662,35.31,2.42
Erzin,1,TR,2022-02-11 05:01:08,74,36.9559,36.2,34.32,1.79
Rikitea,43,PF,2022-02-11 05:01:09,72,-23.1203,-134.9692,79.63,15.12
Artsyz,16,UA,2022-02-11 05:01:09,85,45.9919,29.4182,35.83,7.61
Huancavelica,98,PE,2022-02-11 05:01:10,84,-12.7667,-74.9833,39.25,0.85
Nagato,82,JP,2022-02-11 05:01:10,51,34.3833,131.2,51.69,12.82
Pisco,0,PE,2022-02-11 04:52:00,73,-13.7,-76.2167,71.65,6.91
Longyearbyen,75,SJ,2022-02-11 05:01:11,79,78.2186,15.6401,19.24,6.91
George Town,40,MY,2022-02-11 04:50:03,79,5.4112,100.3354,84.13,3.44
São João da Barra,100,BR,2022-02-11 04:51:16,98,-21.6403,-41.0511,71.53,6.17
Chui,0,UY,2022-02-11 05:01:12,85,-33.6971,-53.4616,68.97,9.75
Yellowknife,99,CA,2022-02-11 05:01:12,80,62.456,-114.3525,-17.45,5.01
Kaduqli,0,SD,2022-02-11 05:01:13,14,11.0167,29.7167,68.25,14.88
Carnarvon,12,AU,2022-02-11 05:01:13,58,-24.8667,113.6333,87.87,9.91
Seoul,3,KR,2022-02-11 05:01:05,35,37.5683,126.9778,47.59,3.53
Cherskiy,100,RU,2022-02-11 05:01:02,99,68.75,161.3,-32.24,5.55
Bumba,56,CD,2022-02-11 05:01:14,75,2.1833,22.4667,70.54,1.92
Ampanihy,99,MG,2022-02-11 04:54:01,84,-24.7,44.75,75.52,9.22
Payakumbuh,100,ID,2022-02-11 05:01:15,58,-0.2202,100.6308,82.49,2.53
Hokitika,83,NZ,2022-02-11 04:53:01,72,-42.7167,170.9667,68.18,7.74
Avarua,12,CK,2022-02-11 05:01:16,69,-21.2078,-159.775,82.45,8.05
Pirgos,13,GR,2022-02-11 05:01:16,68,35.1167,25.7178,53.28,7.63
Roebourne,45,AU,2022-02-11 05:01:17,53,-20.7833,117.1333,91.78,17.34
Barrow,100,US,2022-02-11 05:01:17,69,71.2906,-156.7887,-18.38,8.05
Hithadhoo,100,MV,2022-02-11 05:01:18,68,-0.6,73.0833,81.1,3.96
Leningradskiy,45,RU,2022-02-11 04:51:30,95,69.3833,178.4167,-28.8,4.32
Kapaa,24,US,2022-02-11 05:01:19,80,22.0752,-159.319,73.38,3.09
Alofi,1,NU,2022-02-11 05:01:19,73,-19.0595,-169.9187,81.86,13.62
Ancud,15,CL,2022-02-11 04:53:49,78,-41.8697,-73.8203,50.43,6.85
Iqaluit,100,CA,2022-02-11 05:01:20,71,63.7506,-68.5145,2.7,8.99
Hermanus,0,ZA,2022-02-11 04:58:55,74,-34.4187,19.2345,61.9,2.8
Kaitangata,16,NZ,2022-02-11 05:01:20,75,-46.2817,169.8464,61.05,7.25
Guerrero Negro,0,MX,2022-02-11 05:01:21,50,27.9769,-114.0611,64.0,5.95
Triolet,4,MU,2022-02-11 05:01:08,64,-20.0547,57.5453,84.27,3.0
Batemans Bay,100,AU,2022-02-11 04:51:45,77,-35.7167,150.1833,70.11,9.46
Divnomorskoye,100,RU,2022-02-11 05:01:22,89,44.5011,38.1353,42.64,10.36
Ossora,19,RU,2022-02-11 05:01:22,80,59.2353,163.0719,-6.65,4.03
Puerto Ayora,88,EC,2022-02-11 05:01:23,93,-0.7393,-90.3518,74.55,4.79
Tadine,100,NC,2022-02-11 05:01:23,83,-21.55,167.8833,82.62,24.32
Thompson,0,CA,2022-02-11 04:59:46,69,55.7435,-97.8558,-23.64,9.22
Trāl,0,IN,2022-02-11 05:01:25,35,33.9333,75.1,38.07,2.51
Villa María,89,AR,2022-02-11 05:01:25,66,-32.4075,-63.2402,70.83,5.59
Ishigaki,100,JP,2022-02-11 05:01:26,78,24.3448,124.1572,67.28,18.45
Bethel,2,US,2022-02-11 04:58:50,67,41.3712,-73.414,40.59,3.51
Cidreira,12,BR,2022-02-11 05:01:26,82,-30.1811,-50.2056,73.94,19.37
Kloulklubed,100,PW,2022-02-11 05:01:27,75,7.0419,134.2556,83.25,18.01
Newburn,11,GB,2022-02-11 05:01:27,86,54.9876,-1.7442,32.09,2.3
Tuktoyaktuk,100,CA,2022-02-11 05:01:27,91,69.4541,-133.0374,-14.28,20.8
Labuhan,100,ID,2022-02-11 05:01:28,78,-6.8844,112.2051,82.54,10.02
Lagoa,98,PT,2022-02-11 05:01:28,69,39.05,-27.9833,58.91,9.86
Mbini,26,GQ,2022-02-11 05:01:29,87,1.574,9.6134,78.12,4.94
Mandera,1,KE,2022-02-11 05:01:29,42,3.9366,41.867,77.99,14.79
Tual,81,ID,2022-02-11 05:01:30,68,-5.6667,132.75,82.72,3.0
Bredasdorp,0,ZA,2022-02-11 05:01:30,74,-34.5322,20.0403,57.27,3.0
Chokurdakh,72,RU,2022-02-11 05:01:31,92,70.6333,147.9167,-27.49,9.66
Hingatungan,100,PH,2022-02-11 05:01:31,90,10.584,125.1852,78.58,10.29
Kamaishi,100,JP,2022-02-11 05:01:32,64,39.2667,141.8833,38.43,12.93
Oddur,15,SO,2022-02-11 04:52:16,60,4.1213,43.8894,70.25,22.21
Tabou,42,CI,2022-02-11 05:01:33,90,4.423,-7.3528,77.95,5.03
Anadyr,0,RU,2022-02-11 04:53:02,76,64.75,177.4833,-23.3,6.71
Mahajanga,100,MG,2022-02-11 05:01:33,82,-15.7167,46.3167,79.56,2.95
Dillon,25,US,2022-02-11 05:00:55,59,34.4166,-79.3712,50.83,6.6
Butaritari,33,KI,2022-02-11 05:01:34,78,3.0707,172.7902,82.65,18.19
Castro,9,BR,2022-02-11 05:01:35,99,-24.7911,-50.0119,57.38,4.79
Faro,0,PT,2022-02-11 04:59:01,62,37.0194,-7.9322,56.98,3.44
New Norfolk,8,AU,2022-02-11 05:01:35,26,-42.7826,147.0587,73.65,1.99
Bilibino,50,RU,2022-02-11 04:52:16,98,68.0546,166.4372,-36.99,2.55
Jashpurnagar,3,IN,2022-02-11 05:01:36,29,22.9,84.15,67.59,6.53
Tiruchchendur,94,IN,2022-02-11 05:01:36,72,8.4833,78.1167,81.57,18.75
Zaria,100,NG,2022-02-11 04:58:30,19,11.1113,7.7227,59.29,10.04
Provideniya,0,RU,2022-02-11 05:01:37,64,64.3833,-173.3,-11.09,11.18
Henties Bay,83,NA,2022-02-11 04:52:25,89,-22.116,14.2845,71.85,8.28
Rafiganj,0,IN,2022-02-11 05:01:38,38,24.8167,84.65,68.86,10.92
Dikson,100,RU,2022-02-11 04:57:24,93,73.5069,80.5464,5.76,26.19
Upernavik,63,GL,2022-02-11 05:01:38,98,72.7868,-56.1549,-19.73,5.99
Touros,21,BR,2022-02-11 05:01:39,79,-5.1989,-35.4608,76.1,8.01
Damme,25,DE,2022-02-11 05:01:39,86,52.5167,8.2,38.89,7.0
Mahébourg,75,MU,2022-02-11 05:01:07,74,-20.4081,57.7,84.25,5.75
Severo-Kuril'sk,90,RU,2022-02-11 05:01:40,75,50.6789,156.125,28.53,3.74
Safi,80,MA,2022-02-11 04:52:56,74,32.2994,-9.2372,57.65,8.12
Whitehorse,26,CA,2022-02-11 05:01:41,97,60.7161,-135.0538,-2.11,3.85
Atuona,16,PF,2022-02-11 04:59:17,74,-9.8,-139.0333,78.42,17.0
Maningrida,74,AU,2022-02-11 05:01:41,58,-12.0667,134.2667,89.78,11.41
Bubaque,1,GW,2022-02-11 05:01:42,73,11.2833,-15.8333,77.83,11.21
Yar-Sale,82,RU,2022-02-11 05:01:42,80,66.8333,70.8333,3.58,17.31
Lamu,51,KE,2022-02-11 05:01:42,79,-2.2717,40.902,79.02,12.01
Irondequoit,100,US,2022-02-11 05:01:43,81,43.2134,-77.5797,33.53,5.75
Bahía Blanca,100,AR,2022-02-11 04:58:42,55,-38.7196,-62.2724,65.21,13.2
Biltine,4,TD,2022-02-11 04:52:06,21,14.5333,20.9167,59.94,13.67
Laguna,0,US,2022-02-11 05:01:44,75,38.421,-121.4238,63.32,5.75
Port Elizabeth,0,ZA,2022-02-11 05:01:44,79,-33.918,25.5701,66.33,2.95
Kadyy,100,RU,2022-02-11 05:01:44,96,57.787,43.1903,27.0,6.06
Paamiut,100,GL,2022-02-11 04:51:53,69,61.994,-49.6678,16.12,10.02
Tasiilaq,100,GL,2022-02-11 04:57:39,62,65.6145,-37.6368,8.46,4.81
Pevek,100,RU,2022-02-11 05:01:46,97,69.7008,170.3133,-27.18,7.76
Prince George,0,CA,2022-02-11 04:59:49,41,53.9166,-122.753,36.84,9.22
Luján,0,AR,2022-02-11 05:00:27,85,-34.5703,-59.105,75.97,7.43
Yulara,0,AU,2022-02-11 05:01:47,15,-25.2406,130.9889,92.75,13.06
San Patricio,89,US,2022-02-11 05:01:47,75,28.017,-97.5169,58.82,6.49
Kutum,0,SD,2022-02-11 05:01:48,32,14.2,24.6667,47.25,7.02
Rawson,0,AR,2022-02-11 05:01:48,54,-43.3002,-65.1023,57.79,7.4
Nizhniy Kuranakh,100,RU,2022-02-11 05:01:49,92,58.8353,125.4869,-13.58,1.79
Colares,72,PT,2022-02-11 05:01:49,65,38.7992,-9.4469,57.88,15.01
Narsaq,95,GL,2022-02-11 05:01:50,62,60.9167,-46.05,19.62,7.54
Ust'-Kut,63,RU,2022-02-11 05:01:50,86,56.7938,105.7672,-4.68,0.4
Chake Chake,95,TZ,2022-02-11 04:58:45,66,-5.2459,39.7666,81.43,11.3
Sam Chuk,62,TH,2022-02-11 05:01:51,37,14.7576,100.0899,96.1,5.37
Bambous Virieux,75,MU,2022-02-11 05:01:51,74,-20.3428,57.7575,84.22,5.75
Fuyu,100,CN,2022-02-11 05:01:52,87,45.1833,124.8167,17.17,15.7
Deputatsky,100,RU,2022-02-11 05:01:52,91,69.3,139.9,-8.91,4.0
Nabire,95,ID,2022-02-11 04:49:18,82,-3.3667,135.4833,82.02,3.69
Pangnirtung,100,CA,2022-02-11 05:01:53,97,66.1451,-65.7125,-1.41,8.55
Santa Helena de Goiás,85,BR,2022-02-11 05:01:53,96,-17.8136,-50.5969,67.95,4.16
Kiryat Gat,34,IL,2022-02-11 05:01:54,100,31.61,34.7642,50.77,2.55
Conde,38,BR,2022-02-11 05:01:54,82,-7.2597,-34.9075,75.63,5.5
Jiwani,0,PK,2022-02-11 05:01:55,52,25.05,61.7417,71.73,8.59
Lázaro Cárdenas,0,MX,2022-02-11 05:01:55,72,17.9583,-102.2,70.29,4.81
Aklavik,62,CA,2022-02-11 05:01:56,99,68.2191,-135.0107,-23.98,2.77
Porto Walter,100,BR,2022-02-11 05:01:56,93,-8.2686,-72.7439,71.1,1.61
Sept-Îles,100,CA,2022-02-11 05:01:57,96,50.2001,-66.3821,31.05,9.22
Bluff,25,NZ,2022-02-11 05:01:57,75,-46.6,168.3333,61.81,12.64
Arrondissement de Bastia,75,FR,2022-02-11 05:01:58,83,42.6667,9.3333,49.3,5.75
Sigli,57,ID,2022-02-11 05:01:58,68,5.3848,95.9609,83.97,3.96
Halifax,34,CA,2022-02-11 04:57:55,93,44.6453,-63.5724,37.49,16.11
Pingliang,85,CN,2022-02-11 05:01:59,85,35.5392,106.6861,31.8,3.76
Geraldton,75,AU,2022-02-11 05:02:00,48,-28.7667,114.6,90.01,19.57
Gouyave,3,GD,2022-02-11 05:02:00,66,12.1646,-61.7296,77.14,19.77
Poum,99,NC,2022-02-11 05:02:01,83,-20.2333,164.0167,81.41,21.63
Pouembout,100,NC,2022-02-11 05:02:01,82,-21.1333,164.9,82.94,12.33
Wexford,61,IE,2022-02-11 05:02:02,80,52.3342,-6.4575,33.13,7.74
East London,47,ZA,2022-02-11 05:02:02,79,-33.0153,27.9116,71.22,3.44
Zhangjiakou,100,CN,2022-02-11 05:00:22,34,40.81,114.8794,31.03,0.51
Nuquí,100,CO,2022-02-11 04:53:04,89,5.7125,-77.2708,76.77,3.65
São Filipe,98,CV,2022-02-11 05:02:03,62,14.8961,-24.4956,76.06,5.32
Constitución,100,CL,2022-02-11 05:00:56,61,-35.3333,-72.4167,59.52,3.56
Sitka,94,US,2022-02-11 04:57:29,79,57.0531,-135.33,28.6,4.83
Tucumã,80,BR,2022-02-11 05:02:04,95,-0.1833,-50.05,74.48,3.94
Vestmannaeyjar,99,IS,2022-02-11 05:02:05,61,63.4427,-20.2734,36.19,0.38
Kolokani,0,ML,2022-02-11 04:53:33,13,13.5728,-8.0339,64.78,13.98
Portland,7,US,2022-02-11 05:01:02,90,45.5234,-122.6762,48.52,5.01
Fairbanks,99,US,2022-02-11 05:00:01,73,64.8378,-147.7164,-10.86,3.31
Soyo,35,AO,2022-02-11 05:02:06,87,-6.1349,12.3689,75.25,6.02
Nantucket,34,US,2022-02-11 05:02:06,73,41.2835,-70.0995,44.1,11.99
Sinnamary,86,GF,2022-02-11 05:01:13,89,5.3833,-52.95,75.42,8.77
Batagay,98,RU,2022-02-11 05:02:07,96,67.6333,134.6333,-21.95,0.74
Lichinga,100,MZ,2022-02-11 05:02:07,96,-13.3128,35.2406,61.39,2.75
Alice Springs,0,AU,2022-02-11 05:02:08,19,-23.7,133.8833,87.35,11.5
Victor Harbor,41,AU,2022-02-11 04:59:48,66,-35.5667,138.6167,81.91,1.99
Carutapera,100,BR,2022-02-11 05:02:08,93,-1.195,-46.02,75.99,4.79
Yerbogachën,94,RU,2022-02-11 05:02:09,89,61.2767,108.0108,-4.16,4.88
Esperance,25,AU,2022-02-11 04:58:56,28,-33.8667,121.9,109.24,17.56
Great Bend,0,US,2022-02-11 05:02:10,47,38.3645,-98.7648,46.04,14.97
Bukama,100,CD,2022-02-11 05:02:10,98,-9.2,25.85,68.65,1.59
Coos Bay,100,US,2022-02-11 05:00:39,98,43.3665,-124.2179,47.93,10.36
Chulym,8,RU,2022-02-11 05:02:11,88,55.0997,80.9572,-2.47,9.13
Plácido de Castro,93,BR,2022-02-11 05:02:11,93,-10.3353,-67.1856,73.04,2.84
Fortuna,0,US,2022-02-11 05:02:12,82,40.5982,-124.1573,54.52,10.36
Berlevåg,96,NO,2022-02-11 05:02:12,92,70.8578,29.0864,26.78,13.49
Alice,0,US,2022-02-11 05:02:13,87,27.7523,-98.0697,56.32,3.44
Kumul,100,CN,2022-02-11 05:02:13,58,42.8,93.45,29.37,5.5
Balancán,85,MX,2022-02-11 05:02:14,83,17.8,-91.5333,67.37,1.63
Mandan,100,US,2022-02-11 05:02:15,76,46.8267,-100.8896,39.18,19.57
Tiksi,100,RU,2022-02-11 05:02:15,93,71.6872,128.8694,-12.06,12.06
Half Moon Bay,0,US,2022-02-11 05:00:41,55,37.4636,-122.4286,66.4,3.44
Comodoro Rivadavia,5,AR,2022-02-11 05:01:53,42,-45.8667,-67.5,58.17,4.43
Agadir,32,MA,2022-02-11 05:00:21,46,30.4202,-9.5982,50.45,4.05
Oktyabr'skiy,100,RU,2022-02-11 05:02:16,96,54.4815,53.471,19.53,3.67
Gambēla,78,ET,2022-02-11 05:02:17,37,8.25,34.5833,79.27,1.23
Airai,100,TL,2022-02-11 05:02:17,88,-8.9266,125.4092,67.06,0.65
Ust'-Koksa,55,RU,2022-02-11 05:02:18,91,50.2696,85.6108,-0.53,1.01
Gbarnga,32,LR,2022-02-11 05:02:18,99,6.9956,-9.4722,67.73,1.59
Henderson,0,US,2022-02-11 05:02:19,29,36.0397,-114.9819,65.64,9.22
Mahabalipuram,39,IN,2022-02-11 05:02:19,62,12.6264,80.1722,84.25,15.12
Pacific Grove,0,US,2022-02-11 05:02:20,58,36.6177,-121.9166,62.46,5.75
Chapais,84,CA,2022-02-11 05:02:20,100,49.7834,-74.8492,-12.86,2.89
Karasuk,30,RU,2022-02-11 05:02:21,96,53.7377,78.0403,-9.38,4.54
Swan Hill,70,AU,2022-02-11 05:02:21,20,-35.3378,143.5544,82.6,14.43
Nome,7,US,2022-02-11 04:54:01,76,64.5011,-165.4064,-19.84,7.11
Mar del Plata,69,AR,2022-02-11 05:02:22,86,-38.0023,-57.5575,70.88,1.01
Adrar,76,MR,2022-02-11 05:02:22,23,20.5022,-10.0711,59.09,12.82
Shelburne,86,CA,2022-02-11 04:52:23,83,44.0787,-80.2041,28.85,11.16
Jalu,0,LY,2022-02-11 04:53:58,71,29.0331,21.5482,47.55,6.91
Lumby,58,CA,2022-02-11 05:02:23,93,50.2498,-118.969,35.73,4.27
The Valley,32,AI,2022-02-11 05:02:23,73,18.217,-63.0578,78.1,24.27
Arys,97,KZ,2022-02-11 05:02:24,41,42.4252,68.795,44.82,5.41
Saskylakh,95,RU,2022-02-11 05:02:24,93,71.9167,114.0833,2.93,12.46
Lorengau,100,PG,2022-02-11 05:02:25,77,-2.0226,147.2712,83.16,6.6
Nouakchott,97,MR,2022-02-11 05:02:25,28,18.0858,-15.9785,67.93,14.38
Carpinteria,0,US,2022-02-11 05:02:26,39,34.3989,-119.5185,69.84,6.02
Richards Bay,19,ZA,2022-02-11 05:02:26,84,-28.783,32.0377,73.26,3.74
Calvinia,0,ZA,2022-02-11 04:59:02,39,-31.4707,19.776,68.18,0.65
Havøysund,98,NO,2022-02-11 05:02:27,75,70.9963,24.6622,32.88,33.98
Dunedin,61,NZ,2022-02-11 05:02:27,82,-45.8742,170.5036,62.8,5.99
Ouadda,83,CF,2022-02-11 05:02:28,20,8.0777,22.4007,64.02,4.45
Esik,97,KZ,2022-02-11 05:02:28,61,43.3552,77.4525,17.02,2.39
Kiruna,75,SE,2022-02-11 04:57:48,68,67.8557,20.2251,18.52,12.66
Bayshore Gardens,0,US,2022-02-11 05:02:29,84,27.4253,-82.5904,56.98,5.75
Ashland,67,US,2022-02-11 05:02:29,89,40.8167,-82.2665,28.31,10.02
Gijang,0,KR,2022-02-11 05:02:30,34,35.2442,129.2139,47.91,5.37
Soc Trang,100,VN,2022-02-11 05:02:31,47,9.6033,105.98,85.96,17.02
Povolzhskiy,99,RU,2022-02-11 05:02:31,97,53.5854,49.7629,20.82,5.14
Kieta,97,PG,2022-02-11 05:02:31,85,-6.2167,155.6333,80.78,6.67
Cayenne,100,GF,2022-02-11 04:58:51,89,4.9333,-52.3333,77.09,1.14
Dongxing,100,CN,2022-02-11 05:02:32,89,45.3667,130.8,20.37,5.97
Korla,13,CN,2022-02-11 05:02:32,37,41.7597,86.1469,31.93,3.6
Cham,75,CH,2022-02-11 05:02:33,96,47.1821,8.4636,44.82,2.3
Leh,42,IN,2022-02-11 05:02:33,80,34.1667,77.5833,-1.28,2.59
Vao,100,NC,2022-02-11 05:02:34,85,-22.6667,167.4833,81.7,32.88
Plyussa,87,RU,2022-02-11 05:02:34,88,58.4308,29.3654,32.34,10.02
Avera,19,US,2022-02-11 05:02:35,57,33.194,-82.5271,55.27,4.9
Shache,100,CN,2022-02-11 05:02:35,32,38.4167,77.2406,38.57,3.33
Souillac,75,MU,2022-02-11 05:02:36,74,-20.5167,57.5167,84.36,5.75
Norman Wells,25,CA,2022-02-11 05:02:36,91,65.282,-126.8329,-15.99,1.74
Kismayo,85,SO,2022-02-11 05:02:37,72,-0.3582,42.5454,79.07,17.65
Auki,96,SB,2022-02-11 05:02:37,88,-8.7676,160.7034,79.29,6.73
Burgeo,63,CA,2022-02-11 05:02:38,93,47.6167,-57.6152,32.83,10.74
Waiuku,86,NZ,2022-02-11 05:02:38,97,-37.25,174.75,79.32,8.97
Meulaboh,48,ID,2022-02-11 05:01:09,65,4.1363,96.1285,85.05,5.37
Altamont,7,US,2022-02-11 04:53:15,73,42.2068,-121.7372,46.78,3.29
Simao,1,CN,2022-02-11 05:02:39,20,22.7886,100.9748,72.07,6.2
Gorontalo,98,ID,2022-02-11 04:59:13,76,0.5412,123.0595,84.65,2.53
San Fernando del Valle de Catamarca,100,AR,2022-02-11 05:01:33,47,-28.4696,-65.7852,84.78,11.01
Salinópolis,100,BR,2022-02-11 05:02:40,88,-0.6136,-47.3561,77.43,7.72
Sultepec,0,MX,2022-02-11 05:02:40,40,18.8667,-99.95,45.46,3.89
Shingū,0,JP,2022-02-11 05:02:41,41,33.7333,135.9833,52.92,4.25
Lompoc,0,US,2022-02-11 05:00:10,50,34.6391,-120.4579,65.19,4.92
Togur,30,RU,2022-02-11 05:02:42,90,58.3631,82.8265,-5.8,4.09
Saldanha,0,ZA,2022-02-11 05:02:42,87,-33.0117,17.9442,62.58,8.21
Faxinal,1,BR,2022-02-11 04:57:46,84,-24.0003,-51.3194,61.77,3.85
Sørland,100,NO,2022-02-11 05:02:43,60,67.667,12.6934,33.12,27.2
Riyadh,1,SA,2022-02-11 05:00:00,22,24.6877,46.7219,64.47,6.29
Taoudenni,3,ML,2022-02-11 05:02:43,37,22.6783,-3.9836,55.87,11.99
Krasnoshchekovo,49,RU,2022-02-11 05:02:44,94,51.6708,82.7289,-0.62,0.85
Tuatapere,79,NZ,2022-02-11 05:02:21,75,-46.1333,167.6833,61.83,7.78
Seymchan,96,RU,2022-02-11 05:02:44,95,62.8833,152.4333,-27.94,1.07
Coolum Beach,1,AU,2022-02-11 05:02:45,56,-26.5333,153.1,85.33,17.38
Puerto Quijarro,100,BO,2022-02-11 05:02:45,95,-17.7833,-57.7667,73.26,2.33
Tondano,66,ID,2022-02-11 05:02:46,70,1.3038,124.9112,77.09,4.29
Kuala Lipis,100,MY,2022-02-11 05:02:46,77,4.1842,102.0468,79.0,1.43
Pekan,100,MY,2022-02-11 05:02:47,93,3.4836,103.3996,75.09,9.69
Leisure City,0,US,2022-02-11 05:02:47,92,25.4954,-80.4292,72.0,0.0
Leshukonskoye,100,RU,2022-02-11 05:02:48,92,64.8989,45.7622,19.58,10.11
Alta Floresta,100,BR,2022-02-11 05:01:19,97,-9.8756,-56.0861,71.65,2.66
Viranşehir,17,TR,2022-02-11 05:02:48,82,37.2353,39.7631,41.81,8.81
Nemuro,73,JP,2022-02-11 05:02:49,68,43.3236,145.575,25.59,4.92
Camacha,40,PT,2022-02-11 05:02:49,94,33.0833,-16.3333,61.56,8.05
Gravdal,100,NO,2022-02-11 05:02:50,58,68.1214,13.5031,31.68,22.77
Lander,0,US,2022-02-11 05:02:50,30,42.833,-108.7307,48.6,5.75
Itupiranga,100,BR,2022-02-11 05:02:51,99,-5.1347,-49.3267,72.45,4.14
Samarai,77,PG,2022-02-11 05:02:51,61,-10.6167,150.6667,83.89,19.15
Caxito,67,AO,2022-02-11 05:02:52,94,-8.5785,13.6643,74.05,2.95
Marawi,100,PH,2022-02-11 05:02:52,77,7.9986,124.2928,71.65,7.11
General Roca,42,AR,2022-02-11 04:58:33,23,-39.0333,-67.5833,66.6,16.17
Nanortalik,100,GL,2022-02-11 05:02:53,66,60.1432,-45.2371,27.41,3.78
Clyde River,100,CA,2022-02-11 05:02:53,93,70.4692,-68.5914,-19.19,8.3
Hamilton,34,US,2022-02-11 04:59:19,77,39.1834,-84.5333,34.93,1.01
Nelson Bay,85,AU,2022-02-11 05:02:54,71,-32.7167,152.15,79.11,3.0
Codrington,97,AU,2022-02-11 05:02:54,52,-38.2667,141.9667,65.26,17.05
Riberalta,100,BO,2022-02-11 05:02:55,94,-10.9833,-66.1,73.85,3.02
Ketchikan,95,US,2022-02-11 04:53:07,82,55.3422,-131.6461,33.78,3.47
Havre-St-Pierre,100,CA,2022-02-11 05:02:56,96,50.2334,-63.5986,31.39,11.97
Prachuap Khiri Khan,45,TH,2022-02-11 05:02:56,40,12.2167,99.75,91.26,6.78
Umm Kaddadah,7,SD,2022-02-11 05:02:57,28,13.6017,26.6876,53.87,18.99
Lazurne,71,UA,2022-02-11 04:53:19,88,46.084,32.5295,39.02,14.72
Ilulissat,100,GL,2022-02-11 05:02:57,65,69.2167,-51.1,-2.18,3.44
Ulaanbaatar,0,MN,2022-02-11 05:00:55,60,47.9077,106.8832,-0.27,8.95
Hambantota,40,LK,2022-02-11 05:02:58,100,6.1241,81.1185,79.14,1.14
Ugoofaaru,33,MV,2022-02-11 05:02:58,76,5.6667,73.0,81.48,10.63
Wasilla,100,US,2022-02-11 05:00:19,66,61.5814,-149.4394,24.3,4.27
Hasaki,91,JP,2022-02-11 05:02:59,57,35.7333,140.8333,48.29,19.57
Zhigansk,100,RU,2022-02-11 05:03:00,96,66.7697,123.3711,-20.56,12.68
Margate,7,GB,2022-02-11 05:03:00,82,51.3813,1.3862,38.7,5.01
São Paulo de Olivença,100,BR,2022-02-11 05:03:01,93,-3.3783,-68.8725,73.13,0.31
Krasnosel'kup,85,RU,2022-02-11 05:03:01,86,65.7,82.4667,-6.84,9.98
Beringovskiy,28,RU,2022-02-11 05:03:02,96,63.05,179.3167,-25.67,7.72
Āsasa,25,ET,2022-02-11 05:03:02,51,7.1,39.2,57.76,5.46
Lodja,100,CD,2022-02-11 05:03:03,95,-3.4833,23.4333,69.51,2.62
Amahai,92,ID,2022-02-11 05:03:03,75,-3.3333,128.9167,82.67,7.02
Road Town,7,VG,2022-02-11 05:02:57,80,18.4167,-64.6167,73.99,20.49
Contamana,62,PE,2022-02-11 05:03:04,99,-7.3333,-75.0167,72.1,2.13
Chaoyang,11,CN,2022-02-11 05:03:04,29,41.5703,120.4586,31.98,9.66
Skjervøy,100,NO,2022-02-11 05:03:05,60,70.0311,20.9714,30.2,27.67
Conceição da Barra,86,BR,2022-02-11 04:58:07,93,-18.5933,-39.7322,73.74,4.29
Te Anau,22,NZ,2022-02-11 05:03:06,57,-45.4167,167.7167,70.0,6.24
Wangqing,100,CN,2022-02-11 05:03:06,64,43.3218,129.7634,31.68,4.38
Prome,38,MM,2022-02-11 05:03:07,15,18.8167,95.2167,88.56,5.41
Garoowe,42,SO,2022-02-11 05:03:07,69,8.4054,48.4845,65.44,13.67
Alubaren,50,HN,2022-02-11 05:03:08,68,13.797,-87.4682,72.39,5.37
Cacoal,100,BR,2022-02-11 05:00:46,97,-11.4386,-61.4472,73.53,3.02
Talara,87,PE,2022-02-11 04:58:55,77,-4.5772,-81.2719,72.86,8.77
Dingle,98,PH,2022-02-11 05:03:09,72,10.9995,122.6711,82.45,15.05
Caçu,57,BR,2022-02-11 05:03:09,94,-18.5567,-51.1308,68.52,3.11
Vanavara,99,RU,2022-02-11 05:03:10,89,60.34,102.2797,-5.6,1.72
Golden,57,US,2022-02-11 04:56:47,40,39.7555,-105.2211,50.29,8.81
Palora,74,EC,2022-02-11 05:03:10,97,-1.7,-77.9333,64.6,2.66
Kruisfontein,0,ZA,2022-02-11 05:03:11,79,-34.0033,24.7314,63.9,2.06
Imbituba,59,BR,2022-02-11 05:00:57,84,-28.24,-48.6703,76.82,8.66
Moorhead,100,US,2022-02-11 05:03:12,84,46.8739,-96.7676,35.98,18.41
Sesheke,100,ZM,2022-02-11 05:03:12,96,-17.4759,24.2968,65.17,3.36
Lano,84,NG,2022-02-11 05:03:13,19,10.1725,11.4715,63.63,6.44
Cockburn Town,0,TC,2022-02-11 04:53:33,78,21.4612,-71.1419,77.92,18.7
Rio Bonito,100,BR,2022-02-11 05:03:13,97,-22.7086,-42.6097,70.81,1.21
Cabo San Lucas,95,MX,2022-02-11 04:59:39,71,22.8909,-109.9124,68.5,4.7
Santo Augusto,4,BR,2022-02-11 05:03:14,61,-27.8508,-53.7772,69.69,8.39
Vega de Alatorre,98,MX,2022-02-11 05:03:15,90,20.0333,-96.6333,67.24,7.34
Okha,100,RU,2022-02-11 05:03:15,92,53.5739,142.9478,26.89,8.41
Kiama,100,AU,2022-02-11 05:03:16,89,-34.6833,150.8667,73.99,1.99
Strezhevoy,50,RU,2022-02-11 05:03:16,95,60.7333,77.5889,-7.62,5.19
Khilok,72,RU,2022-02-11 05:03:17,75,51.3674,110.4676,-2.33,5.84
Kangaatsiaq,100,GL,2022-02-11 05:03:17,84,68.3065,-53.4641,-2.94,11.32
Bilma,0,NE,2022-02-11 04:57:43,27,18.6853,12.9164,55.8,7.72
Talnakh,16,RU,2022-02-11 05:02:16,92,69.4865,88.3972,1.2,12.19
Samoded,100,RU,2022-02-11 05:03:18,91,63.6083,40.5111,25.66,4.34
Valdivia,2,CL,2022-02-11 05:00:54,67,-39.8142,-73.2459,48.7,4.25
Fallon,0,US,2022-02-11 05:03:19,64,39.4735,-118.7774,35.47,5.75
Haicheng,6,CN,2022-02-11 05:03:19,40,40.8516,122.7475,31.8,13.82
Fort Nelson,71,CA,2022-02-11 05:03:16,89,58.8053,-122.7002,4.91,7.43
Jieshi,58,CN,2022-02-11 05:03:20,70,22.8134,115.8257,71.94,12.91
Sambava,14,MG,2022-02-11 05:03:20,83,-14.2667,50.1667,78.1,4.63
Gemeente Hoogeveen,50,NL,2022-02-11 05:03:21,89,52.6833,6.5833,41.86,21.7
Hīt,5,IQ,2022-02-11 05:03:21,65,33.6416,42.8251,49.64,9.82
Mount Isa,0,AU,2022-02-11 05:02:16,19,-20.7333,139.5,100.17,11.5
Rumford,65,US,2022-02-11 05:03:22,90,44.5537,-70.5509,35.04,6.67
North Bend,100,US,2022-02-11 04:59:58,99,43.4065,-124.2243,47.86,10.36
Valparaíso,27,CL,2022-02-11 05:00:22,68,-33.0393,-71.6273,65.48,3.6
Sungai Penuh,99,ID,2022-02-11 05:03:23,48,-2.0833,101.3833,80.62,5.95
Kattivākkam,15,IN,2022-02-11 05:03:24,73,13.2167,80.3167,84.29,12.8
Itarema,80,BR,2022-02-11 05:00:00,83,-2.9248,-39.9167,76.41,6.42
Chumikan,100,RU,2022-02-11 05:03:24,86,54.7183,135.315,13.84,5.66
Kirksville,100,US,2022-02-11 05:03:25,62,40.1948,-92.5833,43.05,12.66
Puerto López,94,CO,2022-02-11 05:00:56,58,4.0845,-72.956,80.29,1.12
Jurm,100,AF,2022-02-11 05:03:25,52,36.8648,70.8342,34.83,6.11
Escada,100,BR,2022-02-11 05:03:26,82,-8.3592,-35.2236,81.34,1.05
Marsá Maţrūḩ,91,EG,2022-02-11 05:03:26,70,31.3525,27.2453,55.26,14.72
Kahului,40,US,2022-02-11 05:03:27,82,20.8947,-156.47,73.85,9.22
Vélingara,1,SN,2022-02-11 05:03:27,10,13.15,-14.1167,75.65,8.34
Micheweni,79,TZ,2022-02-11 05:03:28,72,-4.9667,39.8333,80.82,12.57
Naze,46,JP,2022-02-11 05:03:28,55,28.3667,129.4833,58.68,10.11
Sakakah,1,SA,2022-02-11 05:03:28,71,29.9697,40.2064,44.1,5.99
Gouré,3,NE,2022-02-11 05:03:29,23,13.9835,10.2704,59.02,9.82
Luanda,20,AO,2022-02-11 05:03:29,78,-8.8368,13.2343,73.4,3.44
Khani,85,GE,2022-02-11 04:59:08,88,41.9563,42.9566,27.97,3.31
Chabahar,0,IR,2022-02-11 05:03:30,49,25.2919,60.643,70.63,8.97
Chanderi,0,IN,2022-02-11 05:03:31,33,24.7167,78.1333,66.02,4.41
Ribeira Grande,100,PT,2022-02-11 05:00:58,69,38.5167,-28.7,59.94,10.16
Sretensk,100,RU,2022-02-11 05:03:31,82,52.2453,117.7093,6.62,2.37
Vostok,100,RU,2022-02-11 05:03:32,82,46.4856,135.8833,22.01,2.55
Quatre Cocos,7,MU,2022-02-11 05:03:32,72,-20.2078,57.7625,84.09,5.97
Tezpur,22,IN,2022-02-11 05:03:33,53,26.6333,92.8,68.95,6.35
Huarmey,100,PE,2022-02-11 05:03:33,81,-10.0681,-78.1522,71.06,5.12
Lavrentiya,55,RU,2022-02-11 05:03:34,97,65.5833,-171.0,-28.55,5.64
Rāmhormoz,100,IR,2022-02-11 05:03:34,35,31.28,49.6035,63.95,4.43
Ostrovnoy,100,RU,2022-02-11 05:03:35,88,68.0531,39.5131,23.38,16.24
Surgut,20,RU,2022-02-11 05:03:35,83,61.25,73.4167,-8.91,7.0
Mason City,75,US,2022-02-11 05:03:36,85,43.1536,-93.201,39.58,20.71
Sabang,73,ID,2022-02-11 05:03:36,74,5.8933,95.3214,81.99,9.95
Leticia,0,CO,2022-02-11 05:03:37,94,-4.2153,-69.9406,77.05,2.3
Batticaloa,95,LK,2022-02-11 05:03:37,72,7.7102,81.6924,81.61,3.87
Boa Vista,0,BR,2022-02-11 04:58:44,65,2.8197,-60.6733,80.58,9.22
Guangyuan,91,CN,2022-02-11 05:03:38,51,32.442,105.823,51.49,0.69
Mangai,78,CD,2022-02-11 05:03:39,98,-4.05,19.5333,68.47,1.3
Tongliao,60,CN,2022-02-11 05:00:33,73,43.6125,122.2653,19.09,12.48
Mossamedes,100,AO,2022-02-11 05:03:39,87,-15.1961,12.1522,72.32,3.91
Talas,20,TR,2022-02-11 05:03:40,86,38.6908,35.5538,14.67,0.0
Ambulu,100,ID,2022-02-11 05:03:40,67,-8.345,113.6058,84.56,4.76
Tegul'det,26,RU,2022-02-11 05:03:41,88,57.3064,88.1667,-1.03,2.71
Chengzhong,91,CN,2022-02-11 05:03:41,52,30.95,113.55,50.34,5.44
Westport,3,US,2022-02-11 05:01:04,67,41.1415,-73.3579,42.94,3.0
Bonavista,65,CA,2022-02-11 04:57:35,81,48.6499,-53.1147,33.12,14.32
Trairi,31,BR,2022-02-11 05:03:42,82,-3.2778,-39.2689,75.74,4.41
Lewistown,0,US,2022-02-11 05:03:43,100,40.5992,-77.5714,33.17,0.0
Orlik,80,RU,2022-02-11 05:03:43,88,52.5178,99.825,-14.55,0.31
Plouzané,0,FR,2022-02-11 04:59:04,93,48.3833,-4.6167,39.52,4.61
San Cristobal,77,VE,2022-02-11 05:00:57,92,7.7669,-72.225,65.79,2.1
Tecpan,30,GT,2022-02-11 05:03:44,95,14.7623,-90.9947,52.05,4.41
Nuuk,75,GL,2022-02-11 05:03:45,59,64.1835,-51.7216,30.81,18.41
Arrondissement de Saint-Denis,0,FR,2022-02-11 05:03:45,91,48.9167,2.3333,38.14,6.91
Vardø,88,NO,2022-02-11 05:03:46,81,70.3705,31.1107,21.4,10.56
Piaçabuçu,64,BR,2022-02-11 04:59:32,76,-10.4056,-36.4344,78.19,8.08
Pacifica,0,US,2022-02-11 05:02:36,55,37.6138,-122.4869,65.77,3.44
Karaton,93,ID,2022-02-11 05:03:47,51,-6.3424,106.1045,90.9,5.03
Skibbereen,100,IE,2022-02-11 05:03:47,71,51.55,-9.2667,37.2,3.56
Cravo Norte,85,CO,2022-02-11 05:03:48,49,6.3017,-70.2041,80.24,3.78
Vilhena,99,BR,2022-02-11 05:03:48,99,-12.7406,-60.1458,68.67,2.39
Saint-Augustin,100,CA,2022-02-11 05:03:49,97,51.226,-58.6502,28.96,12.01
Sistranda,100,NO,2022-02-11 05:03:49,56,63.7256,8.834,31.96,25.26
College,75,US,2022-02-11 05:03:50,73,64.8569,-147.8028,-6.14,3.44
Mopipi,72,BW,2022-02-11 05:03:50,70,-21.1833,24.8833,73.15,5.35
Raudeberg,99,NO,2022-02-11 05:03:51,83,61.9875,5.1352,29.86,16.04
Huadian,100,CN,2022-02-11 05:03:51,84,42.9633,126.7478,26.91,16.89
La Paz,75,BO,2022-02-11 05:03:52,100,-16.5,-68.15,44.58,5.75
Caucayá,54,CO,2022-02-11 05:03:52,91,-0.1934,-74.7819,71.08,0.89
Nirmāli,0,IN,2022-02-11 05:03:53,52,26.3167,86.5833,68.27,10.36
Santarém,75,BR,2022-02-11 05:01:40,97,-2.4431,-54.7083,72.91,2.73
Ati,63,TD,2022-02-11 05:03:53,15,13.2154,18.3353,59.16,11.34
Saint George,0,US,2022-02-11 05:02:44,39,37.1041,-113.5841,56.25,5.75
Muromtsevo,33,RU,2022-02-11 05:03:54,94,56.3724,75.2418,-6.16,7.74
Purgstall,92,AT,2022-02-11 05:03:55,85,48.0584,15.1348,42.66,3.2
Neyshabur,60,IR,2022-02-11 05:03:55,28,36.2133,58.7958,49.82,0.67
Võhma,18,EE,2022-02-11 04:59:09,95,58.6283,25.5483,28.13,7.85
Arica,0,CL,2022-02-11 05:03:56,68,-18.475,-70.3042,64.63,4.61
Sisimiut,100,GL,2022-02-11 05:03:56,77,66.9395,-53.6735,13.87,13.27
Mount Gambier,42,AU,2022-02-11 05:03:57,40,-37.8333,140.7667,71.51,19.57
Bay City,100,US,2022-02-11 05:00:23,79,43.5945,-83.8889,29.1,14.63
Malé,61,MV,2022-02-11 05:03:57,67,4.1748,73.5089,81.63,12.03
Puente Nacional,96,CO,2022-02-11 05:03:58,98,5.8774,-73.6781,60.08,1.59
Narragansett,0,US,2022-02-11 05:03:59,67,41.4501,-71.4495,41.02,3.44
Gilgit,10,PK,2022-02-11 05:03:59,59,35.9221,74.3087,24.39,2.59
Hilton Head,0,US,2022-02-11 04:59:38,72,32.2163,-80.7526,51.98,0.0
Koutiala,1,ML,2022-02-11 05:04:00,10,12.3917,-5.4642,69.51,11.95
Yangi Marg`ilon,100,UZ,2022-02-11 05:04:01,65,40.4272,71.7189,42.22,0.0
La Ronge,77,CA,2022-02-11 05:04:01,99,55.1001,-105.2842,-14.76,4.97
Buraidah,0,SA,2022-02-11 04:59:10,43,26.326,43.975,52.25,11.18
Dulovo,1,BG,2022-02-11 05:04:02,74,43.8167,27.15,39.67,7.09
Forsytheganj,100,BY,2022-02-11 05:04:03,96,52.6333,29.7333,36.59,12.28
Beatrice,100,US,2022-02-11 05:04:03,40,40.2681,-96.747,56.61,10.36
Kibala,56,TD,2022-02-11 05:04:03,18,9.1104,18.3463,69.28,4.85
Port Lincoln,12,AU,2022-02-11 04:58:29,53,-34.7333,135.8667,70.14,12.97
Cotonou,0,BJ,2022-02-11 05:03:32,87,6.3654,2.4183,78.12,5.95
Maracaçumé,100,BR,2022-02-11 04:58:14,98,-2.0428,-45.9592,72.32,2.04
Devonport,0,AU,2022-02-11 05:04:05,45,-41.1667,146.35,73.09,11.34
Kavaratti,80,IN,2022-02-11 05:04:05,72,10.5669,72.642,80.24,10.63
Kul'dur,100,RU,2022-02-11 05:04:06,81,49.2167,131.6333,14.76,2.66
Cap-aux-Meules,92,CA,2022-02-11 05:04:06,96,47.3821,-61.8597,32.07,22.32
Miraflores,2,MX,2022-02-11 05:04:07,59,19.2167,-98.8083,56.03,3.94
Ulaangom,96,MN,2022-02-11 05:03:27,96,49.9811,92.0667,-18.87,2.89
Podgornoye,0,RU,2022-02-11 05:04:08,86,51.735,39.1496,28.62,6.71
Misratah,6,LY,2022-02-11 05:04:08,67,32.3754,15.0925,54.81,4.47
Changuinola,7,PA,2022-02-11 05:04:09,88,9.4333,-82.5167,73.4,4.21
Kudahuvadhoo,89,MV,2022-02-11 05:04:09,72,2.6708,72.8944,81.91,8.08
Beloha,73,MG,2022-02-11 05:04:10,75,-25.1667,45.05,78.62,11.21
Rūdbār,0,AF,2022-02-11 05:04:10,16,30.15,62.6,60.51,3.83
Batken,100,KG,2022-02-11 05:04:10,58,39.8333,71.0,26.76,7.14
Nouadhibou,83,MR,2022-02-11 05:04:11,48,20.931,-17.0347,69.73,13.67
Muncie,99,US,2022-02-11 05:01:33,82,40.1934,-85.3864,30.74,5.01
Tommot,99,RU,2022-02-11 05:04:12,91,58.9564,126.2925,-11.42,1.97
Ambilobe,99,MG,2022-02-11 05:04:12,92,-13.2,49.05,76.42,2.44
Umluj,0,SA,2022-02-11 05:04:13,54,25.0213,37.2685,60.46,10.4
Port Augusta,0,AU,2022-02-11 05:04:13,22,-32.5,137.7667,90.72,15.99
Tsimmerbude,90,RU,2022-02-11 05:04:14,89,54.675,20.1347,36.97,13.56
Ulladulla,100,AU,2022-02-11 05:04:14,81,-35.35,150.4667,68.77,11.72
Banda Aceh,45,ID,2022-02-11 05:04:15,65,5.5577,95.3222,85.1,4.07
Tambacounda,1,SN,2022-02-11 05:04:15,9,13.7539,-13.7586,76.69,12.82
Punta Alta,100,AR,2022-02-11 05:00:54,56,-38.8759,-62.0736,65.61,16.17
Ixtapa,0,MX,2022-02-11 05:04:16,88,20.7,-105.2,67.23,1.01
Naples,1,IT,2022-02-11 05:04:11,95,40.8333,14.25,48.78,1.14
Otjiwarongo,100,NA,2022-02-11 05:04:17,84,-20.4637,16.6477,63.43,12.68
Yarensk,100,RU,2022-02-11 05:00:00,94,62.1675,49.0916,19.65,8.1
Gao,0,ML,2022-02-11 05:02:12,10,16.6362,1.637,63.55,11.54
Fare,18,PF,2022-02-11 05:04:18,75,-16.7,-151.0167,81.07,14.47
Siwāna,0,IN,2022-02-11 05:04:18,25,25.6333,72.4167,69.22,6.4
Rantepao,100,ID,2022-02-11 05:04:19,80,-2.9701,119.8978,75.9,2.3
Qarchī Gak,63,AF,2022-02-11 05:04:19,37,37.04,66.7889,51.89,17.11
Soma,1,TR,2022-02-11 05:04:20,76,39.1855,27.6094,34.0,4.18
Baharly,100,TM,2022-02-11 05:04:20,63,38.4362,57.4316,50.72,10.36
Porto-Novo,0,BJ,2022-02-11 05:04:21,92,6.4965,2.6036,75.49,3.29
Pandan,94,PH,2022-02-11 05:04:21,70,14.0453,124.1694,81.48,14.92
Zhenlai,100,CN,2022-02-11 05:04:21,81,45.8495,123.2973,15.58,15.35
Patacamaya,81,BO,2022-02-11 05:04:22,85,-17.2333,-67.9167,45.91,7.02
Río Gallegos,0,AR,2022-02-11 05:04:23,61,-51.6226,-69.2181,42.85,12.66
Mae Sai,50,TH,2022-02-11 05:04:23,21,20.4335,99.8762,78.44,1.59
Chardara,100,KZ,2022-02-11 05:04:23,48,41.2547,67.9692,48.33,18.32
Zhuanghe,63,CN,2022-02-11 05:04:24,37,39.7008,122.9911,41.81,9.73
Los Negros,67,BO,2022-02-11 05:04:24,80,-17.7333,-63.4333,74.75,4.05
Vilyuysk,65,RU,2022-02-11 05:04:25,92,63.7553,121.6247,-15.93,2.95
Lapeer,100,US,2022-02-11 05:04:25,74,43.0514,-83.3188,29.75,8.05
Manjacaze,0,MZ,2022-02-11 05:04:26,79,-24.7117,33.8828,72.5,0.94
Preobrazheniye,99,RU,2022-02-11 05:04:26,69,42.9019,133.9064,31.48,2.28
Conroe,59,US,2022-02-11 05:04:05,56,30.3119,-95.456,55.56,5.77
Sur,0,OM,2022-02-11 05:04:27,45,22.5667,59.5289,71.55,4.16
Port Hardy,56,CA,2022-02-11 05:04:28,91,50.6996,-127.4199,41.76,7.54
Dwārka,2,IN,2022-02-11 05:04:28,41,22.2394,68.9678,73.42,14.56
Buenos Aires,0,AR,2022-02-11 05:04:07,75,-34.6132,-58.3772,76.73,3.44
Muzhi,100,RU,2022-02-11 05:04:29,95,65.3667,64.6667,2.55,12.95
Moose Jaw,95,CA,2022-02-11 05:03:00,85,50.4001,-105.5344,14.25,16.58
Vila Velha,75,BR,2022-02-11 04:58:52,93,-20.3297,-40.2925,75.15,3.44
Ürümqi,100,CN,2022-02-11 05:04:30,86,43.801,87.6005,13.15,2.24
Vieques,20,PR,2022-02-11 05:04:31,83,18.425,-65.8329,75.9,3.44
Stykkisholmur,86,IS,2022-02-11 05:04:31,86,65.0757,-22.7297,25.63,4.09
Sal Rei,98,CV,2022-02-11 05:04:32,74,16.1833,-22.9167,73.96,14.92
Banepā,4,NP,2022-02-11 05:04:32,55,27.6298,85.5214,54.07,4.34
Aljezur,77,PT,2022-02-11 04:58:27,60,37.3191,-8.8033,53.44,4.72
Qaqortoq,95,GL,2022-02-11 05:04:33,65,60.7167,-46.0333,19.9,6.4
