City,Cloudiness,Country,Date,Humidity,Latitude,Longitude,Max Temperature,Wind Speed
Nokaneng,94,BW,2022-02-11 09:14:45,50,-19.6667,22.2667,81.91,6.73
Kavieng,87,PG,2022-02-11 09:14:45,77,-2.5744,150.7967,81.64,5.37
Ushuaia,100,AR,2022-02-11 09:13:19,95,-54.8,-68.3,39.67,3.06
Vardø,0,NO,2022-02-11 09:14:46,86,70.3705,31.1107,20.95,21.85
Butaritari,22,KI,2022-02-11 09:14:46,79,3.0707,172.7902,82.04,18.05
Kiryat Gat,21,IL,2022-02-11 09:14:47,100,31.61,34.7642,57.9,6.73
Kaitangata,84,NZ,2022-02-11 09:14:47,86,-46.2817,169.8464,56.28,1.43
Port Alfred,9,ZA,2022-02-11 09:14:48,67,-33.5906,26.891,75.33,8.19
Lata,9,PT,2022-02-11 09:14:48,59,40.1629,-8.3327,55.81,1.66
Kyra,47,RU,2022-02-11 09:14:49,78,49.5776,111.9753,-1.53,1.05
Rikitea,11,PF,2022-02-11 09:14:49,73,-23.1203,-134.9692,79.18,17.92
Hithadhoo,100,MV,2022-02-11 09:14:50,69,-0.6,73.0833,81.52,6.53
Bambous Virieux,40,MU,2022-02-11 09:14:50,70,-20.3428,57.7575,84.45,12.66
Jacareacanga,100,BR,2022-02-11 09:14:51,100,-6.2222,-57.7528,71.65,1.21
Bluff,56,NZ,2022-02-11 09:14:51,79,-46.6,168.3333,58.8,6.87
Puerto Ayora,56,EC,2022-02-11 09:14:52,93,-0.7393,-90.3518,73.54,4.16
Port Lincoln,26,AU,2022-02-11 09:14:52,64,-34.7333,135.8667,67.28,13.73
Ilulissat,100,GL,2022-02-11 09:14:53,71,69.2167,-51.1,-0.38,3.44
Hīrākud,3,IN,2022-02-11 09:14:53,30,21.5167,83.8667,81.46,4.9
Sagauli,0,IN,2022-02-11 09:14:54,36,26.7833,84.7333,71.29,11.07
Tasiilaq,100,GL,2022-02-11 09:14:54,62,65.6145,-37.6368,14.16,4.68
Saint-Philippe,79,RE,2022-02-11 09:14:55,76,-21.3585,55.7679,85.55,8.5
Avarua,20,CK,2022-02-11 09:14:55,83,-21.2078,-159.775,77.05,3.44
Norman Wells,75,CA,2022-02-11 09:14:56,69,65.282,-126.8329,-16.56,0.0
Punta Arenas,100,CL,2022-02-11 09:12:16,76,-53.15,-70.9167,48.31,10.36
Mataura,70,NZ,2022-02-11 09:14:56,82,-46.1927,168.8643,58.48,3.69
Eureka,0,US,2022-02-11 09:14:57,72,40.8021,-124.1637,49.39,2.64
Hobart,40,AU,2022-02-11 09:14:57,52,-42.8794,147.3294,62.02,11.5
Coquimbo,0,CL,2022-02-11 09:14:58,88,-29.9533,-71.3436,62.33,1.14
Vaini,40,TO,2022-02-11 09:14:58,94,-21.2,-175.2,77.16,5.75
Vyartsilya,98,RU,2022-02-11 09:14:58,92,62.1764,30.693,24.28,7.34
Dayong,27,CN,2022-02-11 09:14:59,69,25.0209,118.2898,62.28,5.32
Kapaa,40,US,2022-02-11 09:13:11,88,22.0752,-159.319,69.78,8.05
Chui,0,UY,2022-02-11 09:15:00,94,-33.6971,-53.4616,66.43,5.03
Cape Town,0,ZA,2022-02-11 09:15:00,54,-33.9258,18.4232,78.1,16.11
Carambeí,84,BR,2022-02-11 09:15:01,91,-24.9178,-50.0972,56.23,5.93
Bathsheba,75,BB,2022-02-11 09:15:01,83,13.2167,-59.5167,74.01,26.46
Cabo San Lucas,1,MX,2022-02-11 09:14:30,68,22.8909,-109.9124,67.51,4.0
Sinnamary,66,GF,2022-02-11 09:15:02,90,5.3833,-52.95,74.8,7.49
Palanka,0,RS,2022-02-11 09:15:02,62,45.2508,19.3919,50.22,3.65
Atuona,37,PF,2022-02-11 09:14:17,75,-9.8,-139.0333,78.06,16.96
Semme,60,FR,2022-02-11 09:15:03,89,46.1963,1.5007,39.61,7.67
Aklavik,96,CA,2022-02-11 09:15:03,92,68.2191,-135.0107,-15.77,3.71
George,20,ZA,2022-02-11 09:15:04,68,-33.963,22.4617,72.95,8.05
East London,40,ZA,2022-02-11 09:15:04,69,-33.0153,27.9116,76.14,9.22
Zhigansk,100,RU,2022-02-11 09:15:05,98,66.7697,123.3711,-19.91,10.54
Lebu,4,CL,2022-02-11 09:15:05,67,-37.6167,-73.65,53.47,20.65
Snyder,0,US,2022-02-11 09:15:06,35,32.7179,-100.9176,47.52,9.22
Bengkulu,97,ID,2022-02-11 09:15:06,68,-3.8004,102.2655,83.73,7.67
Khatanga,96,RU,2022-02-11 09:15:07,83,71.9667,102.5,1.04,14.43
Port Elizabeth,0,ZA,2022-02-11 09:15:07,53,-33.918,25.5701,77.29,12.66
Vágur,82,FO,2022-02-11 09:15:08,69,61.4732,-6.8119,40.8,24.9
Qaanaaq,14,GL,2022-02-11 09:15:08,66,77.484,-69.3632,-24.92,5.61
Touros,85,BR,2022-02-11 09:15:09,77,-5.1989,-35.4608,76.1,7.94
Dikson,100,RU,2022-02-11 09:15:10,93,73.5069,80.5464,9.54,26.04
New Norfolk,36,AU,2022-02-11 09:15:10,43,-42.7826,147.0587,61.66,1.99
Warmbad,0,NA,2022-02-11 09:15:11,14,-28.45,18.7333,91.54,10.04
San Javier,0,ES,2022-02-11 09:15:11,84,37.8063,-0.8374,55.69,2.3
Arraial do Cabo,75,BR,2022-02-11 09:15:11,88,-22.9661,-42.0278,73.26,5.75
Guerrero Negro,0,MX,2022-02-11 09:15:12,54,27.9769,-114.0611,60.62,2.21
Jamestown,40,US,2022-02-11 09:15:13,86,42.097,-79.2353,31.32,8.05
Acaraú,43,BR,2022-02-11 09:15:13,86,-2.8856,-40.12,76.17,6.93
Vernon,26,CA,2022-02-11 09:14:03,93,50.2581,-119.2691,31.6,4.0
Saint Paul Harbor,100,US,2022-02-11 09:15:14,87,57.79,-152.4072,36.91,21.85
Biak,98,ID,2022-02-11 09:15:14,75,-0.9131,122.8766,80.94,1.52
Kahului,0,US,2022-02-11 09:15:15,77,20.8947,-156.47,73.85,4.0
Corner Brook,81,CA,2022-02-11 09:15:15,96,48.9667,-57.9484,33.93,4.88
Traiguén,0,CL,2022-02-11 09:15:16,69,-38.25,-72.6833,44.62,8.95
Hilo,100,US,2022-02-11 09:15:16,88,19.7297,-155.09,71.33,8.05
Belokurikha,82,RU,2022-02-11 09:15:17,97,51.9959,84.9896,7.25,3.58
Hamilton,40,US,2022-02-11 09:15:17,73,39.1834,-84.5333,37.76,11.5
Noumea,100,NC,2022-02-11 09:15:18,99,-22.2763,166.4572,82.0,16.51
Yellowknife,100,CA,2022-02-11 09:15:18,93,62.456,-114.3525,-16.58,3.44
Trelew,6,AR,2022-02-11 09:12:49,61,-43.249,-65.3051,54.0,4.76
Barrow,0,US,2022-02-11 09:15:19,69,71.2906,-156.7887,-21.98,10.36
Cidreira,0,BR,2022-02-11 09:15:19,83,-30.1811,-50.2056,73.02,15.68
Bubaque,5,GW,2022-02-11 09:15:20,42,11.2833,-15.8333,78.04,15.99
Uyovu,44,TZ,2022-02-11 09:15:20,69,-3.2833,31.5258,76.86,3.18
Mount Isa,0,AU,2022-02-11 09:15:21,21,-20.7333,139.5,96.57,13.8
Kurumkan,93,RU,2022-02-11 09:15:21,97,54.3,110.3,-10.46,1.63
Upernavik,93,GL,2022-02-11 09:15:22,81,72.7868,-56.1549,-19.46,8.72
Mersing,100,MY,2022-02-11 09:15:22,100,2.4312,103.8405,75.11,9.22
Bredasdorp,0,ZA,2022-02-11 09:15:22,47,-34.5322,20.0403,76.32,4.61
Clyde River,100,CA,2022-02-11 09:14:52,76,70.4692,-68.5914,-16.37,25.32
Nouadhibou,97,MR,2022-02-11 09:15:23,32,20.931,-17.0347,69.78,14.97
Hermanus,0,ZA,2022-02-11 09:15:24,62,-34.4187,19.2345,76.89,4.74
Fendou,100,CN,2022-02-11 09:15:24,91,46.65,124.8667,10.96,12.66
Salalah,20,OM,2022-02-11 09:15:25,47,17.0151,54.0924,80.69,6.91
Vrangel',100,RU,2022-02-11 09:15:25,97,42.7297,133.0839,30.13,7.81
Taoudenni,0,ML,2022-02-11 09:15:26,32,22.6783,-3.9836,60.73,18.77
Busselton,22,AU,2022-02-11 09:15:26,49,-33.65,115.3333,93.09,14.0
Rio Grande,3,BR,2022-02-11 09:15:27,83,-32.035,-52.0986,71.94,16.06
Albany,75,US,2022-02-11 09:13:22,91,42.6001,-73.9662,32.31,2.55
Faanui,15,PF,2022-02-11 09:15:27,72,-16.4833,-151.75,81.52,14.52
Grand Gaube,14,MU,2022-02-11 09:15:28,81,-20.0064,57.6608,84.6,2.37
Lagoa,99,PT,2022-02-11 09:15:28,67,39.05,-27.9833,59.05,6.31
Xining,100,CN,2022-02-11 09:15:29,69,36.6167,101.7667,28.04,2.51
Manaure,17,CO,2022-02-11 09:15:29,85,11.7751,-72.4445,74.64,10.92
Meulaboh,63,ID,2022-02-11 09:15:30,64,4.1363,96.1285,84.61,9.19
Oranjestad,92,AW,2022-02-11 09:15:30,79,12.524,-70.027,78.39,21.61
Codrington,0,AU,2022-02-11 09:15:31,63,-38.2667,141.9667,61.14,14.9
Houma,99,US,2022-02-11 09:15:31,77,29.5958,-90.7195,46.4,3.31
Padre Paraíso,96,BR,2022-02-11 09:15:31,99,-17.0742,-41.4844,64.99,0.4
Biltine,0,TD,2022-02-11 09:15:32,11,14.5333,20.9167,78.08,14.94
Nikolskoye,67,RU,2022-02-11 09:15:32,93,59.7035,30.7861,33.87,8.39
Naze,95,JP,2022-02-11 09:15:33,61,28.3667,129.4833,58.12,10.16
Castro,94,BR,2022-02-11 09:15:33,89,-24.7911,-50.0119,58.69,7.56
Lanivtsi,100,UA,2022-02-11 09:15:34,96,49.8633,26.0908,37.51,10.33
Zakamensk,88,RU,2022-02-11 09:15:34,70,50.3741,103.2863,4.42,1.32
Mar del Plata,100,AR,2022-02-11 09:15:35,94,-38.0023,-57.5575,69.1,5.75
Gobabis,15,NA,2022-02-11 09:15:35,40,-22.45,18.9667,81.09,9.57
Krapina,36,HR,2022-02-11 09:15:36,75,46.1608,15.8789,51.89,4.23
Ribeira Grande,40,PT,2022-02-11 09:15:36,82,38.5167,-28.7,59.4,4.61
Ayagoz,77,KZ,2022-02-11 09:15:37,91,47.9714,80.4392,10.22,3.76
Hong Kong,7,HK,2022-02-11 09:14:07,81,22.2855,114.1577,76.17,11.01
Bria,14,CF,2022-02-11 09:15:37,11,6.5423,21.9863,91.81,7.78
Saint-Augustin,100,CA,2022-02-11 09:15:38,97,51.226,-58.6502,29.95,13.49
Lompoc,0,US,2022-02-11 09:15:38,53,34.6391,-120.4579,65.19,10.36
Nishihara,75,JP,2022-02-11 09:15:39,63,26.1842,127.7558,66.25,10.36
Kondinskoye,34,RU,2022-02-11 09:15:39,83,59.6481,67.41,5.13,12.84
Koutsouras,1,GR,2022-02-11 09:15:40,63,35.0339,25.9469,58.1,5.7
Port Blair,24,IN,2022-02-11 09:15:41,64,11.6667,92.75,83.64,12.66
Saldanha,0,ZA,2022-02-11 09:15:42,74,-33.0117,17.9442,67.69,14.03
Jalu,0,LY,2022-02-11 09:15:42,53,29.0331,21.5482,55.69,6.06
Chokurdakh,100,RU,2022-02-11 09:15:43,98,70.6333,147.9167,-18.62,12.77
Chapais,86,CA,2022-02-11 09:15:43,100,49.7834,-74.8492,-2.42,2.01
Chiang Kham,4,TH,2022-02-11 09:15:43,27,19.5233,100.3,89.22,3.02
Wajima,20,JP,2022-02-11 09:15:44,80,37.4,136.9,34.48,3.44
Saskylakh,48,RU,2022-02-11 09:15:44,95,71.9167,114.0833,-4.74,9.66
Cockburn Town,0,TC,2022-02-11 09:12:51,75,21.4612,-71.1419,77.81,19.28
Jiuquan,100,CN,2022-02-11 09:15:46,52,39.7432,98.5174,30.31,3.89
Garoua,2,CM,2022-02-11 09:15:46,8,9.3,13.4,83.14,4.5
Maceió,0,BR,2022-02-11 09:13:45,88,-9.6658,-35.7353,74.64,1.14
Chicama,100,PE,2022-02-11 09:15:47,78,-7.8447,-79.1469,70.39,4.32
Souillac,40,MU,2022-02-11 09:15:47,70,-20.5167,57.5167,84.58,12.66
Ridgecrest,0,US,2022-02-11 09:15:48,29,35.6225,-117.6709,60.66,6.91
Boundiali,2,CI,2022-02-11 09:15:48,14,9.5217,-6.4869,79.36,7.07
Anaconda,91,US,2022-02-11 09:15:49,65,46.1285,-112.9423,38.39,6.35
Kabale,100,UG,2022-02-11 09:15:49,42,-1.2486,29.9899,74.71,7.07
Longyearbyen,75,SJ,2022-02-11 09:15:49,79,78.2186,15.6401,19.24,5.75
Borogontsy,38,RU,2022-02-11 09:15:50,100,62.6683,131.1683,-28.73,1.54
Havelock,42,US,2022-02-11 09:10:22,81,34.8791,-76.9013,51.94,1.99
Lüderitz,35,NA,2022-02-11 09:15:51,56,-26.6481,15.1594,75.83,6.24
Arlit,0,NE,2022-02-11 09:15:51,14,18.7369,7.3853,71.87,6.53
Thompson,0,CA,2022-02-11 09:14:49,68,55.7435,-97.8558,-30.84,6.91
Leningradskiy,86,RU,2022-02-11 09:15:52,94,69.3833,178.4167,-26.61,4.56
Matucana,100,PE,2022-02-11 09:15:52,89,-11.85,-76.4,43.2,1.1
Upata,30,VE,2022-02-11 09:15:53,96,8.0086,-62.3989,66.87,3.65
Carutapera,100,BR,2022-02-11 09:15:53,91,-1.195,-46.02,76.01,3.53
Henties Bay,100,NA,2022-02-11 09:15:54,79,-22.116,14.2845,73.85,4.32
Kologriv,100,RU,2022-02-11 09:15:54,95,58.8275,44.3178,29.77,7.23
Pakxan,83,LA,2022-02-11 09:15:54,25,18.3778,103.6601,97.02,6.06
Palu,99,ID,2022-02-11 09:15:55,92,-0.8917,119.8707,80.04,2.13
Hasaki,10,JP,2022-02-11 09:15:55,62,35.7333,140.8333,39.6,22.28
Fairbanks,100,US,2022-02-11 09:15:30,76,64.8378,-147.7164,-9.06,4.61
Chermoz,100,RU,2022-02-11 09:15:56,91,58.787,56.1489,19.96,12.84
Butembo,86,CD,2022-02-11 09:15:56,28,0.15,29.2833,79.97,6.26
Srandakan,74,ID,2022-02-11 09:15:57,65,-7.9386,110.2506,84.43,5.1
Haines Junction,100,CA,2022-02-11 09:15:58,67,60.7522,-137.5108,12.15,2.3
George Town,20,MY,2022-02-11 09:15:40,74,5.4112,100.3354,85.93,1.14
Sipe Sipe,72,BO,2022-02-11 09:15:58,75,-17.45,-66.3833,56.75,4.59
Cabinda,99,AO,2022-02-11 09:15:59,68,-5.55,12.2,81.97,4.43
Kabalo,97,CD,2022-02-11 09:15:59,83,-6.05,26.9167,75.92,2.42
Vilyuysk,88,RU,2022-02-11 09:16:00,99,63.7553,121.6247,-22.47,3.31
Geraldton,17,AU,2022-02-11 09:16:00,69,-28.7667,114.6,81.01,18.41
Flinders,99,AU,2022-02-11 09:16:01,80,-34.5833,150.8552,71.2,8.99
Montepuez,100,MZ,2022-02-11 09:16:01,93,-13.1256,38.9997,74.17,0.98
Storforshei,100,NO,2022-02-11 09:16:02,86,66.4043,14.5233,27.66,3.44
Hofn,0,IS,2022-02-11 09:16:02,63,64.2539,-15.2082,19.42,4.61
Pisco,0,PE,2022-02-11 09:16:03,78,-13.7,-76.2167,69.85,9.22
Safaga,0,EG,2022-02-11 09:16:03,47,26.7292,33.9365,62.74,18.19
Acapulco de Juárez,75,MX,2022-02-11 09:16:04,83,16.8634,-99.8901,73.22,3.44
Esperance,28,AU,2022-02-11 09:16:04,36,-33.8667,121.9,94.33,2.46
Ust'-Ishim,32,RU,2022-02-11 09:16:05,82,57.6935,71.1665,6.28,9.71
Kasongo-Lunda,67,CD,2022-02-11 09:16:05,57,-6.4667,16.8167,83.86,2.95
San Cristobal,76,VE,2022-02-11 09:16:06,93,7.7669,-72.225,62.46,2.59
Beisfjord,100,NO,2022-02-11 09:16:06,95,68.3751,17.5988,26.96,6.58
Sitka,100,US,2022-02-11 09:16:07,80,57.0531,-135.33,33.69,6.91
Kavaratti,90,IN,2022-02-11 09:16:07,72,10.5669,72.642,80.56,8.25
Cascavel,0,BR,2022-02-11 09:16:07,79,-24.9558,-53.4553,62.87,6.4
Newport,21,GB,2022-02-11 09:14:32,89,51.5877,-2.9984,40.05,1.72
Canyon,4,US,2022-02-11 09:10:21,32,34.9803,-101.9188,42.48,17.38
Cabra,49,ES,2022-02-11 09:16:08,70,37.4725,-4.4421,58.14,2.8
Labuhan,95,ID,2022-02-11 09:16:09,82,-6.8844,112.2051,81.36,12.26
Mogadishu,55,SO,2022-02-11 09:16:09,57,2.0371,45.3438,83.61,21.47
Tairua,83,NZ,2022-02-11 09:16:10,98,-37.0167,175.85,72.09,10.29
Harstad,100,NO,2022-02-11 09:16:10,100,68.799,16.5293,29.43,12.73
Bay Roberts,87,CA,2022-02-11 09:16:11,84,47.5999,-53.2648,38.52,8.99
Zyryanka,32,RU,2022-02-11 09:16:11,98,65.75,150.85,-34.02,3.76
La Ronge,0,CA,2022-02-11 09:16:12,76,55.1001,-105.2842,-18.15,4.61
Strezhevoy,5,RU,2022-02-11 09:16:12,90,60.7333,77.5889,1.38,5.46
Airai,100,TL,2022-02-11 09:16:13,95,-8.9266,125.4092,64.38,1.99
Oranjemund,1,NA,2022-02-11 09:16:13,62,-28.55,16.4333,71.58,14.94
Kingisepp,22,RU,2022-02-11 09:16:14,93,59.3733,28.6134,29.62,8.55
Cap Estate,41,LC,2022-02-11 09:16:14,73,14.0833,-60.95,76.59,23.31
Karratha,7,AU,2022-02-11 09:16:15,59,-20.7377,116.8463,89.82,16.69
Opuwo,100,NA,2022-02-11 09:16:15,64,-18.0607,13.84,74.95,11.07
Brekstad,40,NO,2022-02-11 09:16:16,86,63.687,9.6654,33.01,27.63
Broken Hill,3,AU,2022-02-11 09:16:16,15,-31.95,141.4333,80.6,17.85
Ancud,5,CL,2022-02-11 09:16:17,83,-41.8697,-73.8203,49.42,5.41
Ola,98,RU,2022-02-11 09:16:17,82,59.5833,151.2833,-3.6,5.64
Puerto El Triunfo,48,SV,2022-02-11 09:16:18,69,13.2833,-88.55,73.56,4.63
Alexandria,96,EG,2022-02-11 09:14:20,47,31.2156,29.9553,59.54,3.0
Bacolod City,100,PH,2022-02-11 09:16:18,82,10.6667,122.95,79.59,16.15
Galveston,0,US,2022-02-11 09:15:35,91,29.3669,-94.9669,54.97,8.05
Itaituba,100,BR,2022-02-11 09:16:19,99,-4.2761,-55.9836,72.07,2.1
Aquin,17,HT,2022-02-11 09:16:20,85,18.2833,-73.4,73.62,3.18
Klaksvík,88,FO,2022-02-11 09:16:20,66,62.2266,-6.589,36.52,20.2
Krasnosel'kup,98,RU,2022-02-11 09:16:21,85,65.7,82.4667,-2.67,7.81
Saryozek,9,KZ,2022-02-11 09:16:21,69,44.3583,77.9753,29.35,0.92
Fortuna,0,US,2022-02-11 09:16:22,93,40.5982,-124.1573,49.12,9.22
Coyhaique,0,CL,2022-02-11 09:16:22,75,-45.5752,-72.0662,39.15,4.61
Malbork,100,PL,2022-02-11 09:16:23,80,54.0359,19.0266,42.12,8.86
Bouca,0,CF,2022-02-11 09:16:23,9,6.5105,18.2733,90.61,7.02
Constitución,29,CL,2022-02-11 09:16:23,43,-35.3333,-72.4167,54.27,6.49
Peravurani,89,IN,2022-02-11 09:16:24,64,10.3,79.1833,83.21,16.4
San Patricio,49,US,2022-02-11 09:16:24,84,28.017,-97.5169,56.82,6.08
Avila,33,ES,2022-02-11 09:16:25,61,40.5833,-5.0,36.9,2.51
Māngrol,17,IN,2022-02-11 09:16:25,32,21.1167,70.1167,82.42,1.14
Philadelphia,20,US,2022-02-11 09:13:04,64,39.9523,-75.1638,40.98,1.01
Lashio,4,MM,2022-02-11 09:16:26,22,22.9333,97.75,78.44,3.76
Avaré,15,BR,2022-02-11 09:13:58,98,-23.0986,-48.9258,58.05,7.34
Rovaniemi,0,FI,2022-02-11 09:16:27,92,66.5,25.7167,17.01,5.75
Avera,83,US,2022-02-11 09:16:27,63,33.194,-82.5271,48.7,6.35
Linfen,76,CN,2022-02-11 09:16:28,31,36.0889,111.5189,46.4,1.83
Laurel,0,US,2022-02-11 09:16:28,78,39.0993,-76.8483,42.89,0.0
Bandiagara,0,ML,2022-02-11 09:16:28,9,14.3501,-3.6104,76.08,16.11
Yumen,64,CN,2022-02-11 09:16:29,36,40.2833,97.2,30.85,20.31
Nemuro,89,JP,2022-02-11 09:16:30,73,43.3236,145.575,18.03,6.26
Konya Province,2,TR,2022-02-11 09:16:17,79,38.1667,32.5,29.68,3.6
Tuktoyaktuk,100,CA,2022-02-11 09:16:30,95,69.4541,-133.0374,-16.94,22.44
Moose Factory,100,CA,2022-02-11 09:16:31,77,51.2585,-80.6094,-7.62,4.61
Bilibino,27,RU,2022-02-11 09:16:31,98,68.0546,166.4372,-37.79,2.95
Olafsvik,100,IS,2022-02-11 09:16:32,61,64.8945,-23.7142,33.49,1.66
Ambon City,40,ID,2022-02-11 09:16:32,89,-3.6954,128.1814,78.94,6.91
Alofi,97,NU,2022-02-11 09:16:33,88,-19.0595,-169.9187,76.89,3.44
Redlands,0,US,2022-02-11 09:13:28,30,34.0556,-117.1825,67.62,5.75
Dvinskoy,100,RU,2022-02-11 09:16:33,94,62.1535,45.1175,23.88,6.4
Goma,100,CD,2022-02-11 09:16:34,50,-1.6792,29.2228,75.76,2.77
Byron Bay,0,AU,2022-02-11 09:16:34,66,-28.65,153.6167,76.87,19.3
Tall Kayf,20,TR,2022-02-11 09:16:35,41,37.0833,41.0667,56.59,9.22
Hirara,75,JP,2022-02-11 09:16:35,77,24.8,125.2833,67.86,12.66
Tuatapere,99,NZ,2022-02-11 09:16:36,86,-46.1333,167.6833,58.82,5.64
Lavrentiya,63,RU,2022-02-11 09:16:36,97,65.5833,-171.0,-27.42,5.77
Sarangani,100,PH,2022-02-11 09:16:37,79,5.4033,125.4636,82.09,19.08
Pochutla,15,MX,2022-02-11 09:16:37,72,15.7432,-96.4661,70.83,3.69
Mehrān,39,IR,2022-02-11 09:16:38,38,33.1222,46.1646,62.08,15.95
San Quintín,0,MX,2022-02-11 09:16:38,36,30.4833,-115.95,61.57,1.19
Berekum,8,GH,2022-02-11 09:16:39,50,7.4534,-2.584,82.6,2.73
San Lazaro,21,BZ,2022-02-11 09:16:39,98,18.0387,-88.6622,66.58,3.53
Melfi,0,IT,2022-02-11 09:16:40,49,40.9965,15.6514,50.56,3.51
Maniitsoq,100,GL,2022-02-11 09:16:40,90,65.4167,-52.9,23.94,18.37
Kathu,85,TH,2022-02-11 09:16:41,64,7.9178,98.3332,90.63,5.75
São João da Barra,100,BR,2022-02-11 09:16:41,95,-21.6403,-41.0511,71.47,6.02
Tsimmerbude,100,RU,2022-02-11 09:16:42,88,54.675,20.1347,39.96,13.35
Juneau,100,US,2022-02-11 09:16:42,89,58.3019,-134.4197,32.0,5.75
Ostrovnoy,88,RU,2022-02-11 09:16:43,88,68.0531,39.5131,21.92,13.94
São Filipe,96,CV,2022-02-11 09:16:43,54,14.8961,-24.4956,77.56,7.76
Ixtapa,0,MX,2022-02-11 09:16:44,85,20.7,-105.2,62.22,2.55
Mount Gambier,0,AU,2022-02-11 09:16:44,59,-37.8333,140.7667,60.87,12.91
Araouane,97,ML,2022-02-11 09:16:44,28,18.9048,-3.5265,62.31,18.57
Cherskiy,90,RU,2022-02-11 09:16:45,100,68.75,161.3,-34.38,5.03
Mehamn,40,NO,2022-02-11 09:16:45,74,71.0357,27.8492,33.98,23.02
Tiksi,100,RU,2022-02-11 09:16:46,94,71.6872,128.8694,-14.12,12.5
Saluzzo,75,IT,2022-02-11 09:16:46,81,44.6464,7.4862,51.55,4.61
Ossora,96,RU,2022-02-11 09:16:47,78,59.2353,163.0719,-5.19,4.38
Laas,82,IT,2022-02-11 09:16:47,76,46.6166,10.7002,38.66,4.85
Cap Malheureux,13,MU,2022-02-11 09:16:48,81,-19.9842,57.6142,84.69,2.95
Uşak Province,0,TR,2022-02-11 09:16:48,34,38.5,29.4167,42.78,4.09
Marzuq,63,YE,2022-02-11 09:16:49,15,14.4,46.4667,80.42,7.72
Sembakung,98,ID,2022-02-11 09:16:49,86,3.8167,117.25,85.93,0.56
Umluj,0,SA,2022-02-11 09:16:50,38,25.0213,37.2685,68.38,15.17
Eyl,50,SO,2022-02-11 09:16:50,46,7.9803,49.8164,82.08,21.23
Lorengau,100,PG,2022-02-11 09:16:50,80,-2.0226,147.2712,81.61,8.72
Ambunti,100,PG,2022-02-11 09:16:51,96,-4.2365,142.8448,74.98,1.7
Kutum,1,SD,2022-02-11 09:16:51,13,14.2,24.6667,66.34,13.91
Yulara,0,AU,2022-02-11 09:16:52,12,-25.2406,130.9889,93.04,12.66
Tuntum,96,BR,2022-02-11 09:16:52,99,-5.2581,-44.6489,70.72,2.59
Sumbe,89,AO,2022-02-11 09:16:53,57,-11.2061,13.8437,81.55,4.79
Umba,100,RU,2022-02-11 09:16:53,97,66.6871,34.3429,26.58,3.62
Iqaluit,100,CA,2022-02-11 09:16:54,84,63.7506,-68.5145,-2.31,2.3
Dessie,74,ET,2022-02-11 09:16:54,38,11.1333,39.6333,66.06,8.75
Kirakira,95,SB,2022-02-11 09:16:55,88,-10.4544,161.9205,79.12,8.28
Kiama,98,AU,2022-02-11 09:16:55,84,-34.6833,150.8667,71.38,1.99
Dhidhdhoo,77,MV,2022-02-11 09:16:56,74,6.8833,73.1,81.52,8.1
Vacaria,47,BR,2022-02-11 09:16:56,92,-28.5122,-50.9339,60.71,8.68
Irbit,100,RU,2022-02-11 09:16:57,88,57.6705,63.071,8.85,13.11
Pechenga,90,RU,2022-02-11 09:16:57,97,69.5259,31.1703,16.66,5.93
Samarai,92,PG,2022-02-11 09:16:58,71,-10.6167,150.6667,81.86,18.12
Nyurba,100,RU,2022-02-11 09:16:58,96,63.2842,118.3319,-9.15,4.94
Pevek,100,RU,2022-02-11 09:16:59,97,69.7008,170.3133,-23.73,7.54
Fort Nelson,0,CA,2022-02-11 09:15:40,78,58.8053,-122.7002,-2.61,0.0
Las Vegas,0,US,2022-02-11 09:08:43,32,36.175,-115.1372,61.48,9.22
Nome,0,US,2022-02-11 09:16:59,58,64.5011,-165.4064,-11.13,4.61
Grindavik,75,IS,2022-02-11 09:17:00,69,63.8424,-22.4338,32.47,6.91
Qui Nhon,80,VN,2022-02-11 09:17:01,78,13.7667,109.2333,78.17,11.88
Iguape,25,BR,2022-02-11 09:17:01,85,-24.7081,-47.5553,72.03,3.89
Shimanovsk,100,RU,2022-02-11 09:17:01,95,52.0,127.7,2.26,5.12
Tremedal,57,BR,2022-02-11 09:17:02,96,-14.9758,-41.4108,66.45,2.66
Walvis Bay,95,NA,2022-02-11 09:17:02,65,-22.9575,14.5053,77.95,5.75
Ponta Delgada,75,PT,2022-02-11 09:17:03,72,37.7333,-25.6667,59.5,5.75
Marawi,100,PH,2022-02-11 09:17:04,92,7.9986,124.2928,68.65,4.92
Severobaykal'sk,69,RU,2022-02-11 09:17:04,98,55.65,109.3167,-7.11,0.45
Mishawaka,100,US,2022-02-11 09:12:51,74,41.662,-86.1586,38.37,18.41
Vesele,52,UA,2022-02-11 09:17:05,59,47.0148,34.915,47.61,16.35
Ahome,0,MX,2022-02-11 09:17:05,68,25.9167,-109.1833,54.95,1.41
Mikkeli,20,FI,2022-02-11 09:17:06,93,61.6886,27.2723,23.11,11.5
Galesong,100,ID,2022-02-11 09:17:06,75,-5.3166,119.3661,84.22,3.0
Sechura,100,PE,2022-02-11 09:17:07,73,-5.5569,-80.8222,72.3,5.79
Ouricuri,82,BR,2022-02-11 09:17:07,83,-7.8825,-40.0817,70.81,2.95
Saint-Pierre,75,RE,2022-02-11 09:17:08,70,-21.3393,55.4781,85.64,11.5
Den Helder,75,NL,2022-02-11 09:17:08,59,52.9599,4.7593,43.95,18.01
Benguela,100,AO,2022-02-11 09:17:09,57,-12.5763,13.4055,80.56,4.45
Victor Harbor,7,AU,2022-02-11 09:17:09,76,-35.5667,138.6167,70.92,3.0
Acapetahua,0,MX,2022-02-11 09:17:10,69,15.2833,-92.7,71.6,3.18
Havre-St-Pierre,100,CA,2022-02-11 09:17:10,93,50.2334,-63.5986,34.39,9.22
Huarmey,100,PE,2022-02-11 09:17:11,81,-10.0681,-78.1522,70.65,6.55
Kruisfontein,0,ZA,2022-02-11 09:17:11,45,-34.0033,24.7314,79.95,7.87
Severo-Kuril'sk,97,RU,2022-02-11 09:17:12,84,50.6789,156.125,24.82,2.19
Te Anau,39,NZ,2022-02-11 09:17:12,89,-45.4167,167.7167,55.29,5.01
Vila Franca do Campo,100,PT,2022-02-11 09:17:13,73,37.7167,-25.4333,59.2,3.51
Carnarvon,66,AU,2022-02-11 09:17:13,70,-24.8667,113.6333,84.27,14.97
Yokkaichi,0,JP,2022-02-11 09:17:14,52,34.9667,136.6167,48.09,11.79
Zhuhai,40,CN,2022-02-11 09:17:15,82,22.2769,113.5678,77.86,2.3
Punalūr,59,IN,2022-02-11 09:17:15,35,9.0,76.9333,85.68,9.69
Sadu,0,RO,2022-02-11 09:17:16,58,45.6667,24.1833,46.72,2.3
Baykit,6,RU,2022-02-11 09:17:16,94,61.67,96.37,2.46,0.96
Murud,5,IN,2022-02-11 09:17:17,37,18.3258,72.965,87.26,9.95
Vredendal,0,ZA,2022-02-11 09:17:17,29,-31.6683,18.5012,81.79,3.02
Cabedelo,100,BR,2022-02-11 09:17:18,77,-6.9811,-34.8339,75.87,7.0
Sangar,41,RU,2022-02-11 09:17:19,100,63.9242,127.4739,-32.58,2.01
Mildura,11,AU,2022-02-11 09:17:19,22,-34.2,142.15,80.56,9.22
Korla,4,CN,2022-02-11 09:17:19,31,41.7597,86.1469,35.91,9.6
Itarema,34,BR,2022-02-11 09:17:20,86,-2.9248,-39.9167,75.94,6.71
Hambantota,64,LK,2022-02-11 09:17:20,65,6.1241,81.1185,84.9,15.21
Manzhouli,83,CN,2022-02-11 09:17:21,97,49.6,117.4333,-4.05,6.58
Anadyr,0,RU,2022-02-11 09:17:22,68,64.75,177.4833,-28.7,6.71
Khomutovka,100,RU,2022-02-11 09:17:22,100,51.9207,34.5619,34.05,16.96
Ahipara,76,NZ,2022-02-11 09:17:23,94,-35.1667,173.1667,74.55,9.24
Sur,0,OM,2022-02-11 09:17:23,36,22.5667,59.5289,76.19,9.19
Yangliuqing,100,CN,2022-02-11 09:17:24,42,39.1375,116.9997,45.99,11.9
Vikhorevka,83,RU,2022-02-11 09:17:24,89,56.1201,101.1636,-5.76,3.22
Sawtell,75,AU,2022-02-11 09:17:25,64,-30.3833,153.1,75.22,21.85
Frata,81,RO,2022-02-11 09:17:25,85,46.7,24.05,36.09,3.42
Saint George,0,US,2022-02-11 09:17:26,51,37.1041,-113.5841,54.36,5.01
Rawson,7,AR,2022-02-11 09:17:26,61,-43.3002,-65.1023,55.09,5.95
Tual,91,ID,2022-02-11 09:17:27,65,-5.6667,132.75,83.5,1.63
Lázaro Cárdenas,0,MX,2022-02-11 09:17:27,74,17.9583,-102.2,68.02,4.94
Ellsworth,0,US,2022-02-11 09:17:27,94,44.5434,-68.4195,34.54,3.44
Kilindoni,100,TZ,2022-02-11 09:17:28,77,-7.9139,39.6668,81.37,11.97
Kotido,26,UG,2022-02-11 09:17:28,24,2.9806,34.1331,87.31,8.81
Alghero,40,IT,2022-02-11 09:17:29,87,40.5589,8.3181,58.98,2.3
Ojinaga,0,MX,2022-02-11 09:17:29,33,29.5667,-104.4167,45.55,4.61
Torbay,100,CA,2022-02-11 09:17:12,92,47.6666,-52.7314,37.76,18.41
Ninghai,100,CN,2022-02-11 09:17:30,98,29.2892,121.4247,48.72,3.36
Kirillov,100,RU,2022-02-11 09:17:30,90,59.863,38.3813,31.93,7.99
Bethel,0,US,2022-02-11 09:16:39,71,41.3712,-73.414,37.22,0.0
Hervey Bay,0,AU,2022-02-11 09:17:31,63,-25.2986,152.8535,77.11,21.14
Erenhot,100,CN,2022-02-11 09:17:32,80,43.6475,111.9767,9.1,6.15
Asău,71,RO,2022-02-11 09:17:32,69,46.4333,26.4,51.4,5.53
Langarūd,100,IR,2022-02-11 09:17:33,87,37.197,50.1535,49.98,6.85
Dakar,45,SN,2022-02-11 09:17:33,41,14.6937,-17.4441,77.88,9.22
Emba,94,KZ,2022-02-11 09:17:33,91,48.8264,58.1442,26.91,15.43
Panguna,100,PG,2022-02-11 09:17:34,97,-6.3164,155.4848,67.82,3.09
Maykor,100,RU,2022-02-11 09:17:34,94,59.0059,55.88,19.85,11.23
Astoria,8,US,2022-02-11 09:16:01,96,46.1879,-123.8313,47.86,5.01
College,75,US,2022-02-11 09:17:35,76,64.8569,-147.8028,-9.08,4.61
Wad Rāwah,0,SD,2022-02-11 09:17:35,15,15.1603,33.1397,78.48,17.56
Leshukonskoye,100,RU,2022-02-11 09:17:36,93,64.8989,45.7622,21.51,8.75
Podporozh'ye,100,RU,2022-02-11 09:17:37,94,60.9112,34.1706,26.94,9.53
Fairview,40,US,2022-02-11 09:17:37,60,40.8126,-73.999,42.4,5.75
Kampene,100,CD,2022-02-11 09:17:37,83,-3.6,26.6667,70.25,3.42
Qasigiannguit,100,GL,2022-02-11 09:17:38,79,68.8193,-51.1922,-0.15,3.51
Maumere,99,ID,2022-02-11 09:17:38,82,-8.6199,122.2111,80.06,2.21
Yambio,95,SS,2022-02-11 09:17:39,18,4.5721,28.3955,92.07,9.53
Bandarbeyla,72,SO,2022-02-11 09:17:39,56,9.4942,50.8122,78.42,18.1
Tarko-Sale,89,RU,2022-02-11 09:17:40,83,64.9225,77.785,-0.58,11.5
Mackay,12,AU,2022-02-11 09:17:40,67,-21.15,149.2,79.68,9.8
Morant Bay,17,JM,2022-02-11 09:17:41,81,17.8815,-76.4093,76.62,8.79
São José do Belmonte,100,BR,2022-02-11 09:17:41,90,-7.8614,-38.7597,68.72,3.51
Chumikan,100,RU,2022-02-11 09:17:42,96,54.7183,135.315,11.39,3.78
Mossamedes,97,AO,2022-02-11 09:17:42,61,-15.1961,12.1522,79.0,3.36
Talnakh,31,RU,2022-02-11 09:17:42,92,69.4865,88.3972,1.2,11.63
Río Gallegos,0,AR,2022-02-11 09:17:43,75,-51.6226,-69.2181,41.05,11.5
Westport,40,US,2022-02-11 09:17:43,71,41.1415,-73.3579,40.08,1.99
Rocha,2,UY,2022-02-11 09:17:44,97,-34.4833,-54.3333,63.07,5.88
Chul'man,100,RU,2022-02-11 09:17:44,100,56.8479,124.9104,-25.35,3.22
Zhenlai,68,CN,2022-02-11 09:17:45,90,45.8495,123.2973,6.08,4.79
Ormara,0,PK,2022-02-11 09:17:45,48,25.2088,64.6357,72.05,5.79
Ponta do Sol,59,PT,2022-02-11 09:17:46,75,32.6667,-17.1,65.71,2.66
Tabas,0,IR,2022-02-11 09:17:46,19,33.5959,56.9244,65.19,4.61
Waingapu,99,ID,2022-02-11 09:17:46,82,-9.6567,120.2641,80.73,1.92
Buala,100,SB,2022-02-11 09:17:47,86,-8.145,159.5921,79.34,10.6
Ol'ga,100,RU,2022-02-11 09:17:47,88,43.7444,135.2892,26.6,1.68
Kaharlyk,41,UA,2022-02-11 09:17:48,81,49.8623,30.8282,42.44,12.1
Olinda,40,BR,2022-02-11 09:17:48,83,-8.0089,-34.8553,78.53,3.44
Vao,100,NC,2022-02-11 09:17:49,85,-22.6667,167.4833,81.57,28.72
Vazante,100,BR,2022-02-11 09:17:49,96,-17.9869,-46.9078,67.1,1.16
Puerto Baquerizo Moreno,100,EC,2022-02-11 09:17:50,87,-0.9,-89.6,74.01,7.92
Sørland,100,NO,2022-02-11 09:17:50,55,67.667,12.6934,31.86,23.58
Porto Velho,100,BR,2022-02-11 09:17:51,94,-8.7619,-63.9039,75.25,1.14
Peleduy,100,RU,2022-02-11 09:17:51,96,59.6289,112.7406,-6.81,3.15
Sal Rei,93,CV,2022-02-11 09:17:52,53,16.1833,-22.9167,77.2,16.11
San Julián,1,MX,2022-02-11 09:17:52,45,21.0167,-102.1667,45.32,5.06
Margate,3,GB,2022-02-11 09:17:53,80,51.3813,1.3862,41.7,5.01
Deputatsky,100,RU,2022-02-11 09:17:53,94,69.3,139.9,-10.12,4.74
Staryy Nadym,0,RU,2022-02-11 09:17:54,81,65.6118,72.6842,4.05,18.68
Phan Thiet,41,VN,2022-02-11 09:16:54,57,10.9333,108.1,85.5,23.67
Vestmannaeyjar,75,IS,2022-02-11 09:17:54,86,63.4427,-20.2734,34.79,11.5
Riberalta,100,BO,2022-02-11 09:17:55,94,-10.9833,-66.1,72.59,2.35
Cairns,100,AU,2022-02-11 09:17:55,69,-16.9167,145.7667,82.35,5.75
Levice,96,SK,2022-02-11 09:17:56,78,48.2156,18.6071,46.36,3.67
Bonanza,54,NI,2022-02-11 09:17:56,99,14.0289,-84.591,67.17,2.53
Ayan,100,RU,2022-02-11 09:17:57,92,56.45,138.1667,13.59,8.03
Kedrovyy,42,RU,2022-02-11 09:17:57,77,56.1667,91.8167,-3.59,1.36
Lakhnādon,7,IN,2022-02-11 09:17:58,17,22.6,79.6,72.99,7.36
Muroto-misakicho,63,JP,2022-02-11 09:17:58,56,33.2833,134.15,50.04,13.11
Boende,95,CD,2022-02-11 09:17:59,37,-0.2167,20.8667,93.34,5.17
Murray Bridge,1,AU,2022-02-11 09:17:59,66,-35.1167,139.2667,75.31,16.73
Cap-aux-Meules,100,CA,2022-02-11 09:18:00,100,47.3821,-61.8597,33.82,14.97
Salta,40,AR,2022-02-11 09:18:00,89,-24.7859,-65.4117,66.58,3.44
Polunochnoye,100,RU,2022-02-11 09:18:01,93,60.8697,60.4153,8.24,10.13
Kandiari,0,PK,2022-02-11 09:18:01,11,26.9156,68.5216,80.78,6.15
Viļāni,75,LV,2022-02-11 09:18:02,90,56.5525,26.9245,32.16,11.21
Alto Araguaia,100,BR,2022-02-11 09:18:02,99,-17.3147,-53.2153,65.91,4.92
Rundu,45,NA,2022-02-11 09:18:03,59,-17.9333,19.7667,79.86,7.36
Yeppoon,0,AU,2022-02-11 09:18:04,64,-23.1333,150.7333,80.38,13.58
Kovdor,98,RU,2022-02-11 09:18:04,98,67.5662,30.4758,11.26,2.77
Mandera,8,KE,2022-02-11 09:18:05,22,3.9366,41.867,92.32,15.43
Nha Trang,70,VN,2022-02-11 09:18:05,68,12.25,109.1833,82.4,11.7
Gizo Government Station,100,SB,2022-02-11 09:18:06,85,-8.103,156.8419,79.18,5.23
Dudinka,34,RU,2022-02-11 09:18:06,85,69.4058,86.1778,1.62,18.39
Tabou,65,CI,2022-02-11 09:18:07,78,4.423,-7.3528,81.52,5.88
Najrān,0,SA,2022-02-11 09:18:07,21,17.4924,44.1277,81.25,5.06
Russell,0,US,2022-02-11 09:15:27,93,32.3502,-85.1999,47.43,3.44
Dingle,99,PH,2022-02-11 09:18:08,78,10.9995,122.6711,79.84,11.52
Lethem,51,GY,2022-02-11 09:18:08,79,3.3803,-59.7968,74.01,11.16
Voyvozh,100,RU,2022-02-11 09:18:09,90,62.892,54.9635,16.65,11.18
Omsukchan,67,RU,2022-02-11 09:18:09,80,62.5333,155.8,-26.81,3.38
Wanning,92,CN,2022-02-11 09:18:10,77,18.8003,110.3967,71.6,6.53
Kisangani,82,CD,2022-02-11 09:18:10,39,0.5167,25.2,94.08,3.0
Jizan,59,SA,2022-02-11 09:18:11,57,17.3333,42.6667,83.34,8.08
Suluova,20,TR,2022-02-11 09:18:11,75,40.8313,35.6479,35.46,5.75
Guatire,87,VE,2022-02-11 09:18:12,92,10.4762,-66.5427,70.3,3.11
Saint-François,20,FR,2022-02-11 09:18:12,75,46.4154,3.9054,40.44,6.91
Tshikapa,96,CD,2022-02-11 09:18:12,64,-6.4167,20.8,83.19,3.4
Dovolnoye,6,RU,2022-02-11 09:18:13,84,54.4958,79.6671,0.95,5.08
Thinadhoo,80,MV,2022-02-11 09:18:13,71,0.5333,72.9333,81.61,5.55
Lumphat,84,KH,2022-02-11 09:18:14,29,13.4878,106.9816,96.42,9.48
Mahébourg,40,MU,2022-02-11 09:18:14,70,-20.4081,57.7,84.49,12.66
Kamloops,0,CA,2022-02-11 09:18:15,75,50.6665,-120.3192,34.75,4.61
Novikovo,97,RU,2022-02-11 09:18:15,100,51.1537,37.8879,33.78,13.02
Kalianget,100,ID,2022-02-11 09:18:16,83,-7.05,113.9333,80.08,7.43
Kysyl-Syr,87,RU,2022-02-11 09:18:16,100,63.8986,122.7617,-24.77,2.57
Santa Rosalía,0,MX,2022-02-11 09:18:17,35,27.3167,-112.2833,60.58,4.0
Nioro,1,GM,2022-02-11 09:18:17,9,13.35,-15.75,78.37,14.54
Puerto Colombia,44,CO,2022-02-11 09:18:18,81,10.9878,-74.9547,78.89,25.03
Corn Island,14,NI,2022-02-11 09:18:18,80,12.1694,-83.0418,79.18,16.73
Springfield,0,US,2022-02-11 09:15:10,64,37.2153,-93.2982,45.05,11.5
Idritsa,100,RU,2022-02-11 09:18:19,85,56.3316,28.8988,32.49,7.87
Salgado,93,BR,2022-02-11 09:18:19,84,-11.0319,-37.475,77.7,3.13
Carora,49,VE,2022-02-11 09:18:20,77,10.1755,-70.0827,70.79,6.08
Mīrābād,0,AF,2022-02-11 09:18:20,12,30.4362,61.8383,69.94,9.89
Merauke,97,ID,2022-02-11 09:18:21,73,-8.4667,140.3333,81.88,1.39
Cedar City,0,US,2022-02-11 09:14:39,74,37.6775,-113.0619,33.4,5.75
Namatanai,100,PG,2022-02-11 09:18:22,82,-3.6667,152.4333,79.59,4.12
Oeiras do Pará,94,BR,2022-02-11 09:18:22,98,-2.0031,-49.8544,72.77,1.77
Djibouti,13,DJ,2022-02-11 09:18:23,46,11.5,42.5,78.22,16.71
Monduli,100,TZ,2022-02-11 09:18:23,42,-3.3,36.45,78.26,6.87
Falāvarjān,48,IR,2022-02-11 09:18:24,24,32.5553,51.5097,54.61,2.91
Portree,94,GB,2022-02-11 09:18:24,92,57.4129,-6.1942,38.86,8.48
Ginir,5,ET,2022-02-11 09:18:24,19,7.1333,40.7,75.96,11.9
Okhotsk,100,RU,2022-02-11 09:18:25,91,59.3833,143.3,0.03,3.42
Panalingaan,100,PH,2022-02-11 09:18:25,71,8.7842,117.4231,83.12,5.08
Provideniya,15,RU,2022-02-11 09:18:26,92,64.3833,-173.3,-18.31,8.66
Mitsamiouli,100,KM,2022-02-11 09:18:26,84,-11.3847,43.2844,78.93,10.74
Ugoofaaru,100,MV,2022-02-11 09:18:27,72,5.6667,73.0,81.7,10.47
Olavarría,100,AR,2022-02-11 09:17:40,97,-36.8927,-60.3225,61.02,14.09
Ndélé,72,CF,2022-02-11 09:18:27,10,8.4109,20.6473,89.24,6.6
Farafangana,94,MG,2022-02-11 09:18:28,69,-22.8167,47.8333,82.94,6.29
Beloha,77,MG,2022-02-11 09:18:28,58,-25.1667,45.05,85.98,12.59
Goderich,100,CA,2022-02-11 09:17:09,74,43.7501,-81.7165,28.9,14.97
Half Moon Bay,0,US,2022-02-11 09:18:29,61,37.4636,-122.4286,64.76,4.61
Wawa,0,NG,2022-02-11 09:18:30,12,9.9022,4.4192,82.58,6.64
Abhā,20,SA,2022-02-11 09:18:30,52,18.2164,42.5053,71.42,13.8
Cam Ranh,40,VN,2022-02-11 09:18:30,69,11.9214,109.1591,82.36,13.8
Zhangaözen,59,KZ,2022-02-11 09:18:31,49,43.3,52.8,41.63,17.65
Neryungri,100,RU,2022-02-11 09:18:31,99,56.6709,124.6491,-24.99,4.43
Athabasca,100,CA,2022-02-11 09:15:40,97,54.7169,-113.2854,29.89,6.96
Kumul,66,CN,2022-02-11 09:18:32,48,42.8,93.45,32.41,1.43
Amalāpuram,94,IN,2022-02-11 09:18:33,43,16.5833,82.0167,88.18,7.78
Vanderhoof,74,CA,2022-02-11 09:17:09,96,54.0166,-124.0198,23.43,0.89
Charyshskoye,35,RU,2022-02-11 09:18:33,87,51.3978,83.5598,13.05,2.93
Mendeleyevo,40,RU,2022-02-11 09:18:34,80,56.0333,37.2167,31.89,13.42
North Platte,75,US,2022-02-11 09:18:34,64,41.1239,-100.7654,43.25,5.99
Riohacha,18,CO,2022-02-11 09:18:35,91,11.5444,-72.9072,72.52,8.95
Malm,68,NO,2022-02-11 09:18:35,69,64.0721,11.2172,32.79,11.79
Stulovo,100,RU,2022-02-11 09:18:36,92,58.7225,50.1439,21.22,8.05
Beringovskiy,27,RU,2022-02-11 09:18:37,96,63.05,179.3167,-27.81,8.88
Saint Anthony,100,US,2022-02-11 09:15:20,84,45.0205,-93.218,38.25,16.11
Wesselsbron,13,ZA,2022-02-11 09:18:37,36,-27.8549,26.3658,82.67,3.94
Masakin,2,TN,2022-02-11 09:18:38,62,35.7292,10.5808,57.4,9.22
Sahuaripa,0,MX,2022-02-11 09:18:38,36,29.05,-109.2333,53.89,3.87
Yamada,97,JP,2022-02-11 09:18:39,81,39.4667,141.95,32.85,6.55
Guymon,0,US,2022-02-11 09:18:39,52,36.6828,-101.4816,42.75,6.91
Takoradze,33,GH,2022-02-11 09:18:40,76,4.8845,-1.7554,82.69,5.46
Semnan,77,IR,2022-02-11 09:18:40,28,35.5729,53.3971,52.97,1.54
Daoukro,77,CI,2022-02-11 09:18:41,78,7.0591,-3.9631,77.23,3.0
Ingham,100,US,2022-02-11 09:18:41,82,42.6,-84.3833,31.95,9.22
Colares,0,PT,2022-02-11 09:18:42,76,38.7992,-9.4469,60.3,15.01
Kisanga,100,TZ,2022-02-11 09:18:42,66,-7.4362,37.7034,85.8,3.11
Gulmarg,0,IN,2022-02-11 09:18:43,41,34.049,74.3921,32.0,5.03
Lujiang,100,CN,2022-02-11 09:18:43,95,31.2581,117.2817,39.25,8.14
Khasan,94,RU,2022-02-11 09:18:44,92,42.4308,130.6434,31.05,2.95
Zhezkazgan,75,KZ,2022-02-11 09:18:44,74,47.8043,67.7144,26.58,17.9
Alamogordo,0,US,2022-02-11 09:18:45,44,32.8995,-105.9603,51.57,5.75
Killybegs,99,IE,2022-02-11 09:18:45,89,54.6333,-8.45,39.45,11.01
Poum,100,NC,2022-02-11 09:18:45,84,-20.2333,164.0167,81.12,18.23
Ouargaye,0,BF,2022-02-11 09:18:46,9,11.5033,0.0572,82.2,14.92
Flin Flon,12,CA,2022-02-11 09:15:40,95,54.7682,-101.865,-21.75,6.49
Sémbé,57,CG,2022-02-11 09:18:47,27,1.6481,14.5806,91.76,3.53
Omboué,77,GA,2022-02-11 09:18:47,80,-1.5746,9.2618,80.28,7.47
Coxim,100,BR,2022-02-11 09:14:51,95,-18.5067,-54.76,69.12,2.75
Bereda,99,ES,2022-02-11 09:18:48,100,43.2686,-7.5406,49.14,5.19
Burns Lake,85,CA,2022-02-11 09:15:04,99,54.2331,-125.7533,13.42,1.43
Mocuba,100,MZ,2022-02-11 09:18:48,57,-16.8392,36.9856,86.11,2.95
Lulindi,98,TZ,2022-02-11 09:18:49,76,-10.8167,39.1333,79.88,3.6
Pangody,66,RU,2022-02-11 09:18:49,81,65.85,74.4859,2.5,15.97
Moree,50,AU,2022-02-11 09:18:50,30,-29.4667,149.85,84.22,11.5
Dzerzhinsk,100,RU,2022-02-11 09:18:50,80,56.2389,43.4631,31.82,11.18
Balkanabat,53,TM,2022-02-11 09:18:51,58,39.5108,54.3671,50.32,10.13
Mbaïki,15,CF,2022-02-11 09:18:51,9,3.8678,17.9892,91.98,7.18
Vostok,100,RU,2022-02-11 09:18:52,98,46.4856,135.8833,13.73,1.97
Rāpar,4,IN,2022-02-11 09:18:52,23,23.5667,70.6333,78.98,8.43
Umm Hājar,13,TD,2022-02-11 09:18:53,10,13.2954,19.6966,77.54,7.65
Navahrudak,94,BY,2022-02-11 09:18:53,94,53.6,25.8333,32.56,9.69
Aksu,0,CN,2022-02-11 09:18:54,25,41.1231,80.2644,38.14,3.11
Safranbolu,2,TR,2022-02-11 09:18:54,62,41.2508,32.6942,42.53,2.28
Bend,0,US,2022-02-11 09:18:55,43,44.0582,-121.3153,48.38,9.22
Richards Bay,19,ZA,2022-02-11 09:18:55,58,-28.783,32.0377,86.22,3.78
Qaqortoq,100,GL,2022-02-11 09:18:56,67,60.7167,-46.0333,23.5,7.29
Zárkos,0,GR,2022-02-11 09:18:56,71,39.6167,22.1333,46.35,0.0
Nhulunbuy,40,AU,2022-02-11 09:18:57,70,-12.2333,136.7667,86.61,8.05
Launceston,75,AU,2022-02-11 09:18:57,62,-41.45,147.1667,66.15,16.11
San Andrés,6,CO,2022-02-11 09:16:27,77,12.5847,-81.7006,79.84,14.43
Northam,73,GB,2022-02-11 09:18:58,70,51.0333,-4.2167,43.66,2.19
Barguzin,100,RU,2022-02-11 09:18:58,95,53.6167,109.6167,-4.58,1.54
Yenagoa,34,NG,2022-02-11 09:18:59,55,4.9247,6.2642,89.28,2.19
Tumpat,40,MY,2022-02-11 09:18:59,78,6.1978,102.171,82.45,8.05
Kabinda,100,CD,2022-02-11 09:18:59,82,-6.1333,24.4833,71.98,4.18
Liverpool,20,GB,2022-02-11 09:18:24,90,53.4106,-2.9779,41.14,6.91
Vilhena,100,BR,2022-02-11 09:19:00,98,-12.7406,-60.1458,68.49,2.82
Kloulklubed,100,PW,2022-02-11 09:19:01,74,7.0419,134.2556,81.1,16.33
Baie-Saint-Paul,19,CA,2022-02-11 09:19:01,87,47.4411,-70.4986,32.85,5.53
Gramado,3,BR,2022-02-11 09:19:02,89,-29.3786,-50.8739,63.01,4.36
Preobrazheniye,100,RU,2022-02-11 09:19:02,82,42.9019,133.9064,29.17,1.74
Sarany,100,RU,2022-02-11 09:19:03,94,58.5,58.8833,11.16,10.71
