City,Cloudiness,Country,Date,Humidity,Latitude,Longitude,Max Temperature,Wind Speed
Rikitea,43,PF,2022-02-11 05:56:48,74,-23.1203,-134.9692,79.25,15.99
Faanui,29,PF,2022-02-11 06:01:32,72,-16.4833,-151.75,81.63,13.73
Bredasdorp,0,ZA,2022-02-11 06:01:32,62,-34.5322,20.0403,62.28,3.11
Lüderitz,48,NA,2022-02-11 06:01:33,73,-26.6481,15.1594,68.56,3.15
Avarua,14,CK,2022-02-11 06:01:33,83,-21.2078,-159.775,78.85,9.22
Puerto Ayora,85,EC,2022-02-11 06:01:34,92,-0.7393,-90.3518,74.55,4.34
New Norfolk,9,AU,2022-02-11 06:01:34,30,-42.7826,147.0587,69.75,1.99
Afuá,94,BR,2022-02-11 06:01:35,96,-0.1567,-50.3867,74.26,3.22
Adrar,77,MR,2022-02-11 06:01:35,25,20.5022,-10.0711,57.6,12.21
Tiksi,100,RU,2022-02-11 06:01:36,93,71.6872,128.8694,-12.23,12.46
Ushuaia,98,AR,2022-02-11 06:01:36,95,-54.8,-68.3,40.71,3.85
Karratha,29,AU,2022-02-11 06:01:37,51,-20.7377,116.8463,92.12,18.37
Luanda,95,AO,2022-02-11 06:01:37,87,-8.8368,13.2343,73.6,6.06
Leku,19,ET,2022-02-11 06:01:38,41,6.8667,38.45,69.6,5.17
Saskylakh,95,RU,2022-02-11 05:58:03,92,71.9167,114.0833,2.44,12.41
Hermanus,0,ZA,2022-02-11 06:01:39,68,-34.4187,19.2345,67.89,1.92
George Town,20,MY,2022-02-11 06:01:39,78,5.4112,100.3354,84.13,2.3
Lebu,0,CL,2022-02-11 06:01:39,74,-37.6167,-73.65,54.1,17.27
Khatanga,12,RU,2022-02-11 06:01:40,83,71.9667,102.5,-0.76,14.38
Clyde River,100,CA,2022-02-11 06:01:09,69,70.4692,-68.5914,-16.37,24.16
Kapaa,22,US,2022-02-11 06:01:41,59,22.0752,-159.319,68.11,2.64
Severo-Kuril'sk,91,RU,2022-02-11 06:01:41,78,50.6789,156.125,27.52,3.58
Vaini,6,TO,2022-02-11 06:01:42,79,-21.2,-175.2,81.9,15.35
Lorengau,100,PG,2022-02-11 06:01:42,76,-2.0226,147.2712,83.28,6.8
Airai,100,TL,2022-02-11 06:01:43,89,-8.9266,125.4092,67.24,1.23
Kozulka,98,UA,2022-02-11 06:01:43,92,50.0351,23.797,41.32,9.33
Garden City,100,US,2022-02-11 05:56:47,76,42.3256,-83.331,30.45,13.8
Mananjary,46,MG,2022-02-11 06:01:44,78,-21.2167,48.3333,80.22,0.56
Garoowe,42,SO,2022-02-11 06:01:44,56,8.4054,48.4845,69.28,15.95
Norman Wells,37,CA,2022-02-11 06:01:45,91,65.282,-126.8329,-15.86,2.73
Olafsvik,99,IS,2022-02-11 06:01:45,67,64.8945,-23.7142,33.24,3.76
Aripuanã,96,BR,2022-02-11 06:01:46,99,-9.1667,-60.6333,71.92,1.7
Busselton,1,AU,2022-02-11 05:58:05,40,-33.65,115.3333,99.05,13.8
Kaitangata,16,NZ,2022-02-11 06:01:47,78,-46.2817,169.8464,63.93,6.08
Barrow,93,US,2022-02-11 05:57:20,99,71.2906,-156.7887,-28.25,9.66
Jamestown,100,US,2022-02-11 05:54:47,86,42.097,-79.2353,28.04,6.91
Tuktoyaktuk,100,CA,2022-02-11 06:01:48,76,69.4541,-133.0374,-14.8,26.46
Tuatapere,79,NZ,2022-02-11 06:01:48,76,-46.1333,167.6833,60.82,8.75
Kutum,0,SD,2022-02-11 06:01:49,28,14.2,24.6667,50.54,8.46
Nelson Bay,88,AU,2022-02-11 06:01:49,75,-32.7167,152.15,69.01,12.84
Carnarvon,75,AU,2022-02-11 05:58:28,74,-24.8667,113.6333,86.07,14.97
Ribeira Grande,100,PT,2022-02-11 05:56:55,69,38.5167,-28.7,59.99,9.17
Bluff,34,NZ,2022-02-11 06:00:49,79,-46.6,168.3333,60.8,13.35
Kannad,37,IN,2022-02-11 06:01:50,26,20.2667,75.1333,73.9,7.61
Port Elizabeth,0,ZA,2022-02-11 06:01:51,71,-33.918,25.5701,69.35,2.24
Mahébourg,15,MU,2022-02-11 06:01:06,71,-20.4081,57.7,82.26,6.24
Kamenka,95,RU,2022-02-11 06:01:51,94,51.3223,42.7678,27.75,8.14
Nikolskoye,92,RU,2022-02-11 06:01:52,94,59.7035,30.7861,31.89,8.16
Torbay,100,CA,2022-02-11 06:01:52,92,47.6666,-52.7314,34.29,11.5
Albany,50,US,2022-02-11 06:01:53,90,42.6001,-73.9662,35.55,3.53
Ucluelet,59,CA,2022-02-11 06:01:53,93,48.9329,-125.5528,46.09,3.67
Husavik,47,IS,2022-02-11 05:59:16,78,66.0449,-17.3389,31.91,11.32
Mataura,22,NZ,2022-02-11 06:01:54,62,-46.1927,168.8643,60.48,6.8
Tasiilaq,100,GL,2022-02-11 06:01:55,62,65.6145,-37.6368,12.36,5.99
Cape Town,0,ZA,2022-02-11 06:01:54,78,-33.9258,18.4232,68.11,3.0
Touros,25,BR,2022-02-11 05:57:08,78,-5.1989,-35.4608,76.1,7.74
Saint Anthony,75,US,2022-02-11 06:00:41,84,45.0205,-93.218,39.22,4.0
Portland,100,US,2022-02-11 05:51:19,90,45.5234,-122.6762,48.52,8.05
Hobart,20,AU,2022-02-11 05:58:02,54,-42.8794,147.3294,69.26,19.57
Arraial do Cabo,100,BR,2022-02-11 06:01:56,91,-22.9661,-42.0278,72.03,3.4
Vostok,100,RU,2022-02-11 06:01:57,84,46.4856,135.8833,21.4,2.64
Road Town,10,VG,2022-02-11 06:01:57,80,18.4167,-64.6167,73.99,22.39
Szank,14,HU,2022-02-11 06:01:58,81,46.5571,19.661,37.44,7.27
Lompoc,0,US,2022-02-11 05:59:59,50,34.6391,-120.4579,64.18,5.32
Broadford,69,AU,2022-02-11 06:01:58,35,-37.2,145.0667,70.79,15.14
Yellowknife,99,CA,2022-02-11 06:00:59,81,62.456,-114.3525,-17.45,5.01
Lerwick,90,GB,2022-02-11 06:00:43,68,60.1545,-1.1494,39.2,17.05
Evensk,44,RU,2022-02-11 06:01:59,78,61.95,159.2333,-10.98,4.61
Tromsø,100,NO,2022-02-11 06:02:00,93,69.6496,18.957,28.42,12.66
Kochevo,100,RU,2022-02-11 06:02:00,94,59.5994,54.3125,18.41,10.27
Hithadhoo,100,MV,2022-02-11 06:02:01,68,-0.6,73.0833,81.12,4.14
Abu Samrah,36,SY,2022-02-11 06:02:01,77,35.3029,37.1841,44.29,3.78
Guerrero Negro,0,MX,2022-02-11 06:02:02,54,27.9769,-114.0611,62.49,3.56
Haines Junction,43,CA,2022-02-11 06:01:02,100,60.7522,-137.5108,-0.76,1.45
Esperance,26,AU,2022-02-11 06:02:02,27,-33.8667,121.9,111.04,15.95
College,100,US,2022-02-11 06:02:03,70,64.8569,-147.8028,-13.02,4.61
Havre-St-Pierre,100,CA,2022-02-11 06:02:04,93,50.2334,-63.5986,32.36,8.05
Acapulco de Juárez,20,MX,2022-02-11 05:58:59,74,16.8634,-99.8901,72.81,4.09
Nemuro,76,JP,2022-02-11 06:02:04,67,43.3236,145.575,25.61,4.41
Atuona,15,PF,2022-02-11 05:59:25,75,-9.8,-139.0333,78.48,16.71
Takoradze,5,GH,2022-02-11 06:02:05,92,4.8845,-1.7554,77.18,4.68
Riyadh,1,SA,2022-02-11 06:01:04,18,24.6877,46.7219,67.33,8.08
Qaanaaq,56,GL,2022-02-11 06:02:06,65,77.484,-69.3632,-24.47,4.9
Ponta do Sol,100,PT,2022-02-11 06:02:06,57,32.6667,-17.1,65.71,4.94
Pacific Grove,0,US,2022-02-11 06:02:07,55,36.6177,-121.9166,61.75,8.05
Hilo,20,US,2022-02-11 05:54:45,93,19.7297,-155.09,70.25,1.01
Kabanjahe,97,ID,2022-02-11 06:02:07,59,3.1001,98.4908,74.16,3.22
Castro,13,BR,2022-02-11 06:02:08,99,-24.7911,-50.0119,56.61,4.52
Kieta,98,PG,2022-02-11 06:02:08,88,-6.2167,155.6333,79.32,7.43
Liverpool,100,GB,2022-02-11 05:52:54,91,53.4106,-2.9779,40.62,13.8
Tarakan,40,ID,2022-02-11 06:02:09,66,3.3,117.6333,87.3,6.91
Punta Arenas,86,CL,2022-02-11 06:02:09,61,-53.15,-70.9167,46.11,9.69
Piaçabuçu,70,BR,2022-02-11 06:02:10,77,-10.4056,-36.4344,77.63,7.85
Vangaindrano,19,MG,2022-02-11 06:02:10,73,-23.35,47.6,81.18,1.72
Channel-Port aux Basques,57,CA,2022-02-11 06:00:38,92,47.5702,-59.1367,32.31,10.76
Jalu,0,LY,2022-02-11 06:02:11,71,29.0331,21.5482,48.11,6.26
Vestmannaeyjar,99,IS,2022-02-11 05:59:29,62,63.4427,-20.2734,36.25,2.68
Donskoye,100,RU,2022-02-11 06:02:12,97,45.4552,41.9741,38.79,15.9
Korla,11,CN,2022-02-11 06:02:12,34,41.7597,86.1469,33.24,2.28
Abu Dhabi,0,AE,2022-02-11 05:58:48,62,24.4667,54.3667,68.11,5.75
Iāwar,1,IN,2022-02-11 06:02:13,27,23.0,76.5,69.26,7.61
Pevek,100,RU,2022-02-11 06:02:13,97,69.7008,170.3133,-26.72,7.83
Cabedelo,20,BR,2022-02-11 06:01:22,77,-6.9811,-34.8339,78.89,7.85
Sokoni,100,TZ,2022-02-11 06:02:14,77,-6.4333,39.55,80.56,12.01
Okato,100,NZ,2022-02-11 06:02:14,93,-39.2,173.8833,69.91,12.62
Constitución,100,CL,2022-02-11 06:00:56,60,-35.3333,-72.4167,58.42,3.76
Mar del Plata,100,AR,2022-02-11 05:58:41,89,-38.0023,-57.5575,69.87,1.01
Leningradskiy,41,RU,2022-02-11 06:02:15,95,69.3833,178.4167,-29.47,4.41
Faratsiho,70,MG,2022-02-11 06:02:16,74,-19.4,46.95,69.21,0.94
El Vigia,28,VE,2022-02-11 06:02:16,85,8.6219,-71.6506,73.04,2.95
Kavaratti,83,IN,2022-02-11 06:02:17,72,10.5669,72.642,80.26,9.4
Port Alfred,3,ZA,2022-02-11 06:02:17,77,-33.5906,26.891,70.63,4.03
Khandyga,95,RU,2022-02-11 06:02:18,93,62.6667,135.6,-22.4,1.07
Grindavik,75,IS,2022-02-11 06:02:18,69,63.8424,-22.4338,30.67,6.91
Vila Velha,75,BR,2022-02-11 06:02:19,92,-20.3297,-40.2925,75.15,2.3
Talnakh,15,RU,2022-02-11 06:02:20,92,69.4865,88.3972,1.2,12.35
Fortuna,0,US,2022-02-11 06:00:29,76,40.5982,-124.1573,54.52,11.5
Bengkulu,100,ID,2022-02-11 06:02:20,65,-3.8004,102.2655,83.19,6.58
Tiznit Province,36,MA,2022-02-11 06:02:21,25,29.5833,-9.5,54.14,1.72
Khabary,32,RU,2022-02-11 06:02:21,93,53.6259,79.5345,-3.1,3.33
Narón,47,ES,2022-02-11 06:02:21,89,43.5167,-8.1528,52.02,10.58
Turiaçu,100,BR,2022-02-11 06:02:22,93,-1.6633,-45.3717,74.34,3.36
Dikson,100,RU,2022-02-11 06:02:22,93,73.5069,80.5464,6.69,26.06
Saint George,0,US,2022-02-11 05:59:24,42,37.1041,-113.5841,54.36,1.99
Gweta,74,BW,2022-02-11 06:02:23,65,-20.1833,25.2333,75.31,7.29
Turan,75,VN,2022-02-11 06:02:23,74,16.0678,108.2208,80.58,3.44
Ahipara,51,NZ,2022-02-11 05:59:23,87,-35.1667,173.1667,76.82,9.98
Lundazi,100,ZM,2022-02-11 06:01:20,95,-12.2929,33.1782,65.52,4.32
Kidal,0,ML,2022-02-11 06:02:24,13,18.4411,1.4078,61.56,9.51
Codrington,81,AU,2022-02-11 06:02:25,52,-38.2667,141.9667,65.43,16.8
Chokurdakh,73,RU,2022-02-11 06:02:25,92,70.6333,147.9167,-26.95,10.04
Njombe,100,TZ,2022-02-11 06:02:25,92,-9.3333,34.7667,59.23,2.46
Martapura,40,ID,2022-02-11 06:02:26,78,-3.4167,114.85,82.49,4.61
Bethel,2,US,2022-02-11 05:57:45,71,41.3712,-73.414,40.5,3.38
Morant Bay,7,JM,2022-02-11 06:02:27,82,17.8815,-76.4093,78.42,7.29
Dehlorān,95,IR,2022-02-11 06:02:27,59,32.6941,47.2679,58.35,13.6
Kharan,0,PK,2022-02-11 06:02:28,10,28.5833,65.4167,64.62,2.48
Sur,0,OM,2022-02-11 06:02:28,39,22.5667,59.5289,73.36,3.2
San Lazaro,40,BZ,2022-02-11 06:02:29,98,18.0387,-88.6622,66.96,4.23
Lendinara,71,IT,2022-02-11 06:02:29,84,45.0843,11.5997,43.95,1.05
Mount Gambier,35,AU,2022-02-11 06:02:30,46,-37.8333,140.7667,67.39,13.91
Ürümqi,100,CN,2022-02-11 06:02:03,79,43.801,87.6005,14.95,4.47
Kalmar,0,SE,2022-02-11 06:02:31,100,56.6616,16.3616,32.97,5.01
Mehamn,99,NO,2022-02-11 06:02:31,88,71.0357,27.8492,30.38,26.31
Cam Ranh,20,VN,2022-02-11 06:02:31,65,11.9214,109.1591,84.16,16.11
Yar-Sale,70,RU,2022-02-11 06:02:32,77,66.8333,70.8333,2.93,17.69
Tuy Hoa,86,VN,2022-02-11 06:02:32,79,13.0833,109.3,79.47,9.53
Kovdor,94,RU,2022-02-11 06:02:33,99,67.5662,30.4758,9.01,1.9
Chai Nat,65,TH,2022-02-11 06:02:33,50,15.1167,100.1,99.05,2.84
Bandarbeyla,89,SO,2022-02-11 06:02:34,60,9.4942,50.8122,76.77,17.2
Upernavik,62,GL,2022-02-11 05:59:18,93,72.7868,-56.1549,-20.2,5.91
Cap Malheureux,4,MU,2022-02-11 06:01:09,67,-19.9842,57.6142,82.47,3.0
Thompson,0,CA,2022-02-11 05:57:38,68,55.7435,-97.8558,-25.44,11.5
Satis,93,RU,2022-02-11 06:02:35,96,54.9229,43.2298,27.36,9.69
Ōdachō-ōda,84,JP,2022-02-11 06:02:36,68,35.1833,132.5,45.27,9.84
Jinxi,100,CN,2022-02-11 06:02:36,93,30.4323,116.2922,42.26,2.53
Mandiana,2,GN,2022-02-11 06:02:36,17,10.6333,-8.6833,67.71,6.06
Hong Kong,29,HK,2022-02-11 06:02:37,79,22.2855,114.1577,75.96,8.99
Namatanai,85,PG,2022-02-11 06:02:38,77,-3.6667,152.4333,82.65,6.98
Westport,75,US,2022-02-11 06:02:38,65,41.1415,-73.3579,42.94,9.22
Uttaradit,5,TH,2022-02-11 06:02:38,32,17.6667,100.5,92.19,7.02
Kondinskoye,7,RU,2022-02-11 06:02:39,84,59.6481,67.41,-0.76,12.12
Dongli,65,CN,2022-02-11 06:02:39,67,23.5656,116.8194,66.72,8.88
Souillac,35,MU,2022-02-11 06:00:47,73,-20.5167,57.5167,82.36,6.73
Caxito,70,AO,2022-02-11 06:02:40,84,-8.5785,13.6643,71.49,3.0
Adelanto,0,US,2022-02-11 05:54:03,34,34.5828,-117.4092,62.85,1.97
Vao,100,NC,2022-02-11 06:02:41,85,-22.6667,167.4833,81.61,31.94
Doha,0,QA,2022-02-11 06:02:41,64,25.2867,51.5333,69.78,9.22
Chifeng,31,CN,2022-02-11 06:02:42,27,42.2683,118.9636,27.1,3.31
Ancud,19,CL,2022-02-11 06:02:25,80,-41.8697,-73.8203,49.42,5.91
East London,39,ZA,2022-02-11 06:02:42,72,-33.0153,27.9116,74.05,1.48
Tabuk,69,PH,2022-02-11 06:02:43,73,17.4189,121.4443,79.5,6.91
Bicester,6,GB,2022-02-11 06:02:43,91,51.9,-1.1536,37.85,4.99
Kruisfontein,0,ZA,2022-02-11 06:02:44,68,-34.0033,24.7314,68.27,1.7
Faya,17,SA,2022-02-11 06:02:44,62,18.3851,42.4509,58.19,3.94
Tatishchevo,98,RU,2022-02-11 06:02:45,93,51.6703,45.5953,31.48,11.74
Caconda,90,AO,2022-02-11 06:02:45,91,-13.7333,15.0667,58.53,1.03
Marawi,99,PH,2022-02-11 06:02:45,79,7.9986,124.2928,71.65,6.71
Santa Fe,8,AR,2022-02-11 06:01:00,55,-31.6333,-60.7,75.99,7.0
Eureka,0,US,2022-02-11 06:01:47,74,40.8021,-124.1637,54.79,4.0
Rockland,2,US,2022-02-11 06:00:46,69,41.1668,-74.0496,42.46,3.69
Khakhea,9,BW,2022-02-11 06:02:47,53,-24.6895,23.494,76.23,13.38
Roebourne,40,AU,2022-02-11 06:02:47,53,-20.7833,117.1333,91.72,17.52
Camacha,40,PT,2022-02-11 05:58:02,94,33.0833,-16.3333,59.76,6.91
Waddān,2,LY,2022-02-11 06:02:48,79,29.1614,16.139,46.44,5.77
Caravelas,6,BR,2022-02-11 06:01:10,92,-17.7125,-39.2481,74.44,4.25
Petauke,100,ZM,2022-02-11 06:02:49,87,-14.2426,31.3253,67.71,4.0
San Quintín,0,MX,2022-02-11 06:02:49,36,30.4833,-115.95,62.65,4.43
Nara,11,JP,2022-02-11 06:01:52,39,34.6851,135.8049,55.96,11.01
Arlit,0,NE,2022-02-11 06:02:50,24,18.7369,7.3853,58.37,5.26
Jiuquan,100,CN,2022-02-11 06:02:51,57,39.7432,98.5174,28.49,4.97
Aklavik,68,CA,2022-02-11 06:02:51,99,68.2191,-135.0107,-24.54,2.68
Carballo,40,ES,2022-02-11 06:02:51,93,43.213,-8.691,50.86,4.23
Arman',94,RU,2022-02-11 06:02:52,83,59.7,150.1667,1.15,3.67
Buraidah,0,SA,2022-02-11 06:02:52,39,26.326,43.975,57.56,12.95
Boa Vista,0,BR,2022-02-11 05:58:02,73,2.8197,-60.6733,78.78,10.36
Ilulissat,100,GL,2022-02-11 06:02:53,65,69.2167,-51.1,-0.38,1.14
Arrondissement de Moulins,99,FR,2022-02-11 06:02:53,96,46.5,3.3333,41.29,4.16
Port Blair,40,IN,2022-02-11 06:02:54,70,11.6667,92.75,84.24,12.66
Half Moon Bay,0,US,2022-02-11 06:00:53,54,37.4636,-122.4286,66.09,3.44
Crotone,0,IT,2022-02-11 06:02:55,68,39.0851,17.1178,44.92,3.22
Banjar,98,ID,2022-02-11 06:02:55,70,-8.19,114.9675,84.06,3.96
Lavrentiya,56,RU,2022-02-11 06:02:09,97,65.5833,-171.0,-28.71,5.79
Granada,0,ES,2022-02-11 06:02:56,93,37.1882,-3.6067,49.12,0.0
Karasburg,3,NA,2022-02-11 06:02:56,16,-28.0167,18.75,79.68,8.52
Beşikdüzü,37,TR,2022-02-11 06:02:57,68,41.052,39.2284,42.69,2.66
Bom Jesus do Galho,100,BR,2022-02-11 06:02:57,99,-19.8289,-42.3161,67.64,0.6
Saint Paul Harbor,100,US,2022-02-11 06:02:58,87,57.79,-152.4072,35.11,24.16
Kattivākkam,14,IN,2022-02-11 06:02:59,69,13.2167,80.3167,86.09,13.38
San Felipe,100,VE,2022-02-11 06:02:59,90,10.3399,-68.7425,70.95,3.96
Port Hedland,20,AU,2022-02-11 06:03:00,59,-20.3167,118.5667,93.25,19.57
Tim,100,RU,2022-02-11 06:03:01,94,51.6222,37.1244,30.87,10.33
Ikalamavony,26,MG,2022-02-11 06:03:01,70,-21.15,46.5833,76.26,3.89
Yulara,0,AU,2022-02-11 06:01:16,13,-25.2406,130.9889,93.74,13.47
Manta,47,EC,2022-02-11 06:03:02,85,-0.95,-80.7333,73.04,6.87
Hambantota,40,LK,2022-02-11 06:03:02,94,6.1241,81.1185,80.94,4.61
Malayal,100,PH,2022-02-11 06:03:03,79,7.208,121.942,82.18,6.22
High Level,100,CA,2022-02-11 06:03:03,78,58.5169,-117.136,3.31,12.66
Grand Gaube,4,MU,2022-02-11 06:03:04,67,-20.0064,57.6608,82.38,3.0
Aykhal,99,RU,2022-02-11 06:03:04,93,66.0,111.5,4.26,6.78
Adet,44,ET,2022-02-11 06:03:05,53,11.2644,37.4888,65.05,3.67
Provincia di Biella,33,IT,2022-02-11 06:03:05,83,45.5871,8.0859,41.94,2.8
Cayenne,75,GF,2022-02-11 06:00:33,88,4.9333,-52.3333,77.09,3.0
Morón,0,AR,2022-02-11 06:03:06,71,-34.6534,-58.6198,75.97,4.79
Jensen Beach,0,US,2022-02-11 06:03:06,85,27.2545,-80.2298,69.03,4.0
Los Llanos de Aridane,0,ES,2022-02-11 06:03:07,30,28.6585,-17.9182,67.12,5.99
Amahai,89,ID,2022-02-11 06:03:08,75,-3.3333,128.9167,82.81,7.09
Elk City,0,US,2022-02-11 06:03:08,45,35.412,-99.4043,44.82,9.22
Hīt,5,IQ,2022-02-11 06:03:09,58,33.6416,42.8251,52.9,12.55
Mabaruma,35,GY,2022-02-11 06:03:09,92,8.2,-59.7833,71.62,2.71
Narsaq,96,GL,2022-02-11 06:01:28,63,60.9167,-46.05,17.82,7.23
Iquique,6,CL,2022-02-11 06:03:10,68,-20.2208,-70.1431,67.12,2.86
São Filipe,98,CV,2022-02-11 06:03:10,61,14.8961,-24.4956,76.15,7.27
Butaritari,31,KI,2022-02-11 06:03:11,78,3.0707,172.7902,82.56,18.5
Rawson,0,AR,2022-02-11 05:59:08,53,-43.3002,-65.1023,57.09,4.18
Cidreira,10,BR,2022-02-11 06:03:11,83,-30.1811,-50.2056,73.72,19.17
Tamandaré,100,BR,2022-02-11 06:03:12,75,-8.7597,-35.1047,77.88,5.61
Seredka,97,RU,2022-02-11 06:03:12,86,58.1584,28.1858,31.75,9.15
Praia,0,CV,2022-02-11 06:03:13,56,14.9215,-23.5087,73.94,17.27
Mosquera,98,CO,2022-02-11 06:00:54,90,4.7059,-74.2302,53.56,2.59
Paraíso,82,CR,2022-02-11 06:03:13,100,9.8383,-83.8656,67.06,2.98
Tazovsky,97,RU,2022-02-11 06:03:14,78,67.4667,78.7,1.8,15.5
Mae Sai,44,TH,2022-02-11 06:03:14,18,20.4335,99.8762,83.44,2.8
Havelock,9,US,2022-02-11 06:03:15,88,34.8791,-76.9013,51.94,6.78
Rosetta,96,EG,2022-02-11 06:03:15,64,31.4044,30.4164,56.64,4.72
Yinchuan,83,CN,2022-02-11 06:03:16,44,38.4681,106.2731,34.92,5.12
Cherskiy,99,RU,2022-02-11 06:03:16,99,68.75,161.3,-33.3,5.37
Chui,0,UY,2022-02-11 06:03:17,86,-33.6971,-53.4616,68.56,8.75
Kabalo,100,CD,2022-02-11 06:03:17,92,-6.05,26.9167,69.82,3.94
Novoagansk,54,RU,2022-02-11 06:03:18,89,61.9449,76.6625,-3.24,6.49
Barabai,88,ID,2022-02-11 06:03:18,61,-2.5833,115.3833,88.34,1.14
Dunedin,67,NZ,2022-02-11 06:01:30,82,-45.8742,170.5036,61.81,5.99
St. Marys,0,US,2022-02-11 06:03:19,87,30.7305,-81.5465,48.99,0.0
Wad Rāwah,0,SD,2022-02-11 06:03:19,21,15.1603,33.1397,66.69,18.95
Tomigusuku,75,JP,2022-02-11 06:03:20,58,26.185,127.675,68.14,11.5
Bend,0,US,2022-02-11 06:02:06,45,44.0582,-121.3153,50.99,6.91
Zhigansk,100,RU,2022-02-11 06:03:20,97,66.7697,123.3711,-19.95,12.35
Mangaratiba,100,BR,2022-02-11 06:03:21,79,-22.9597,-44.0406,74.03,2.82
Bonfim,39,BR,2022-02-11 06:03:22,68,3.0833,-59.95,77.34,9.15
Rabo de Peixe,40,PT,2022-02-11 06:03:22,87,37.8,-25.5833,56.28,3.44
Taoudenni,3,ML,2022-02-11 06:03:23,38,22.6783,-3.9836,55.31,12.8
Port Hardy,55,CA,2022-02-11 06:02:15,90,50.6996,-127.4199,41.76,7.0
Labuhan,93,ID,2022-02-11 06:03:23,77,-6.8844,112.2051,82.74,11.83
Natchitoches,0,US,2022-02-11 06:03:24,58,31.7668,-93.1335,51.78,4.61
Rongcheng,100,CN,2022-02-11 06:03:24,95,30.634,117.8517,42.46,2.77
Coahuayana Viejo,0,MX,2022-02-11 06:03:25,64,18.7333,-103.6833,64.92,4.72
Vanavara,99,RU,2022-02-11 06:03:25,87,60.34,102.2797,-3.42,1.74
Poum,99,NC,2022-02-11 06:02:23,83,-20.2333,164.0167,81.45,20.8
Kapoeta,57,SS,2022-02-11 06:03:26,25,4.7717,33.5903,87.98,18.03
Geraldton,40,AU,2022-02-11 06:03:26,45,-28.7667,114.6,88.21,20.71
Bambous Virieux,75,MU,2022-02-11 05:59:27,74,-20.3428,57.7575,82.65,5.75
Sitka,0,US,2022-02-11 06:03:27,75,57.0531,-135.33,33.69,8.05
Bajil,26,YE,2022-02-11 06:03:27,70,15.0584,43.2851,76.68,7.02
Dalbandin,0,PK,2022-02-11 06:03:28,13,28.8947,64.4101,61.56,4.83
Serebryansk,83,KZ,2022-02-11 06:03:28,94,49.6925,83.2892,-11.65,5.03
Flinders,100,AU,2022-02-11 06:03:29,81,-34.5833,150.8552,72.81,13.56
Antsohihy,98,MG,2022-02-11 06:03:29,83,-14.8796,47.9875,80.92,1.99
Ekhabi,100,RU,2022-02-11 06:03:30,92,53.5102,142.9671,26.15,7.43
Barão de Melgaço,98,BR,2022-02-11 06:03:30,93,-16.1944,-55.9675,79.32,3.69
Saint-Félicien,69,CA,2022-02-11 06:03:10,88,48.6501,-72.4491,9.05,4.81
Pingliang,87,CN,2022-02-11 06:03:31,85,35.5392,106.6861,32.4,3.67
Bilibino,46,RU,2022-02-11 06:03:31,98,68.0546,166.4372,-37.52,2.77
Pascagoula,0,US,2022-02-11 06:03:32,93,30.3658,-88.5561,51.84,0.0
Kabompo,100,ZM,2022-02-11 06:03:32,90,-13.5927,24.2008,65.35,3.33
Bay Roberts,89,CA,2022-02-11 06:03:33,87,47.5999,-53.2648,35.06,3.0
Brae,98,GB,2022-02-11 06:03:33,65,60.3964,-1.353,39.11,18.34
Saldanha,0,ZA,2022-02-11 06:03:34,81,-33.0117,17.9442,64.45,10.09
Isangel,96,VU,2022-02-11 06:03:34,85,-19.55,169.2667,81.21,18.7
Kiunga,100,PG,2022-02-11 06:03:35,95,-6.1219,141.2906,74.66,2.42
La Ronge,69,CA,2022-02-11 06:03:36,99,55.1001,-105.2842,-17.21,5.57
Mogadishu,68,SO,2022-02-11 06:03:36,67,2.0371,45.3438,79.88,20.65
Nipawin,40,CA,2022-02-11 06:03:36,84,53.3668,-104.0009,-5.76,20.71
Carutapera,100,BR,2022-02-11 06:03:37,93,-1.195,-46.02,75.74,4.47
Erzin,1,TR,2022-02-11 06:03:37,69,36.9559,36.2,43.52,1.07
Bambanglipuro,68,ID,2022-02-11 06:03:38,60,-7.95,110.2833,86.58,9.51
Ponta Delgada,40,PT,2022-02-11 06:03:38,67,37.7333,-25.6667,57.51,3.44
Porto-Novo,0,BJ,2022-02-11 06:03:39,92,6.4965,2.6036,74.95,0.78
Longyearbyen,75,SJ,2022-02-11 06:03:39,79,78.2186,15.6401,19.24,9.22
Dicabisagan,99,PH,2022-02-11 06:03:40,79,17.0818,122.4157,77.29,6.67
Viranşehir,15,TR,2022-02-11 06:03:40,72,37.2353,39.7631,45.54,10.11
Vardø,90,NO,2022-02-11 05:59:23,81,70.3705,31.1107,19.6,10.6
Skoghall,40,SE,2022-02-11 06:03:41,80,59.3232,13.4655,25.36,5.75
Ostrovnoy,100,RU,2022-02-11 06:03:41,88,68.0531,39.5131,22.8,16.93
Kedrovyy,7,RU,2022-02-11 06:03:42,78,56.1667,91.8167,-10.79,1.54
Bathsheba,75,BB,2022-02-11 06:03:42,78,13.2167,-59.5167,75.81,20.71
Bonaventure,100,CA,2022-02-11 06:03:43,91,48.0457,-65.4926,35.35,6.73
São Félix do Xingu,98,BR,2022-02-11 06:03:32,99,-6.6447,-51.995,71.56,0.58
Laguna,0,US,2022-02-11 06:03:43,78,38.421,-121.4238,61.88,8.05
Seoul,17,KR,2022-02-11 06:01:01,35,37.5683,126.9778,47.59,4.79
Ambunti,100,PG,2022-02-11 06:03:44,88,-4.2365,142.8448,77.4,3.44
Megion,41,RU,2022-02-11 06:03:44,92,61.0296,76.1136,-4.99,8.05
Molo,18,KE,2022-02-11 06:03:45,50,-0.2479,35.7374,62.38,6.04
Mzimba,100,MW,2022-02-11 06:03:45,99,-11.9,33.6,63.05,3.76
Hervey Bay,0,AU,2022-02-11 06:03:46,59,-25.2986,152.8535,85.03,21.9
Harper,22,LR,2022-02-11 06:03:46,89,4.375,-7.7169,77.9,5.28
Yangi Marg`ilon,100,UZ,2022-02-11 06:03:47,52,40.4272,71.7189,44.02,2.3
General Pico,96,AR,2022-02-11 06:03:47,94,-35.6566,-63.7568,63.75,15.46
Andenes,75,NO,2022-02-11 06:03:48,74,69.3143,16.1194,30.18,17.27
Hasaki,85,JP,2022-02-11 06:03:48,58,35.7333,140.8333,46.29,19.15
Kashmor,0,PK,2022-02-11 06:03:49,19,28.4333,69.5833,71.74,2.57
Makanya,91,TZ,2022-02-11 06:03:49,68,-4.3667,37.8333,76.15,1.16
Dakar,53,SN,2022-02-11 06:03:50,41,14.6937,-17.4441,79.68,20.24
Coquimbo,100,CL,2022-02-11 05:59:17,94,-29.9533,-71.3436,64.13,3.44
Santiago de Cao,98,PE,2022-02-11 06:01:09,81,-7.9589,-79.2392,70.39,8.39
Jining,98,CN,2022-02-11 06:03:50,37,35.405,116.5814,51.24,4.32
Lata,95,PT,2022-02-11 06:03:51,59,40.1629,-8.3327,58.82,2.08
Krasnyy Yar,98,RU,2022-02-11 06:03:51,92,46.5331,48.3456,37.33,13.91
Mildura,96,AU,2022-02-11 06:03:52,29,-34.2,142.15,84.07,17.07
Correntina,98,BR,2022-02-11 06:03:53,89,-13.3433,-44.6367,67.68,0.6
Östersund,0,SE,2022-02-11 06:03:53,93,63.1792,14.6357,20.61,11.5
Gurupi,100,BR,2022-02-11 06:03:54,94,-11.7292,-49.0686,72.1,2.84
Nyagan,15,RU,2022-02-11 06:03:54,82,62.1406,65.3936,3.33,11.27
Vanimo,97,PG,2022-02-11 06:03:55,82,-2.6741,141.3028,81.46,3.04
Mossamedes,99,AO,2022-02-11 06:03:55,82,-15.1961,12.1522,73.6,3.49
Jumla,1,NP,2022-02-11 06:03:56,54,29.2747,82.1838,40.44,2.95
Itoman,75,JP,2022-02-11 06:03:56,58,26.1247,127.6694,68.4,11.5
Vila Franca do Campo,96,PT,2022-02-11 06:03:57,72,37.7167,-25.4333,57.2,2.91
Palmer,0,US,2022-02-11 06:03:57,80,42.1584,-72.3287,35.15,0.0
San Patricio,84,US,2022-02-11 06:03:58,77,28.017,-97.5169,57.81,5.21
Plettenberg Bay,5,ZA,2022-02-11 06:03:58,73,-34.0527,23.3716,68.43,1.34
Atar,98,MR,2022-02-11 06:03:58,18,20.5169,-13.0499,64.62,10.27
Comarapa,77,BO,2022-02-11 06:03:59,96,-17.9,-64.4833,55.09,2.46
Divnomorskoye,100,RU,2022-02-11 06:03:59,88,44.5011,38.1353,42.82,11.23
Muyezerskiy,99,RU,2022-02-11 06:04:00,87,63.9333,31.65,25.05,12.55
Mto wa Mbu,98,TZ,2022-02-11 06:04:00,55,-3.35,35.85,76.42,2.98
Sol'-Iletsk,99,RU,2022-02-11 06:04:01,96,51.1631,54.9918,21.38,5.77
Lodwar,0,KE,2022-02-11 06:04:01,30,3.1191,35.5973,87.73,16.13
Kumano,51,JP,2022-02-11 06:04:02,58,34.3442,132.5894,49.12,5.21
Key Largo,0,US,2022-02-11 06:04:02,78,25.0865,-80.4473,69.01,7.05
Bubaque,1,GW,2022-02-11 06:04:03,70,11.2833,-15.8333,77.61,11.21
Bursa,0,TR,2022-02-11 06:04:03,55,40.1667,29.0833,23.04,3.87
Moose Factory,68,CA,2022-02-11 06:04:04,99,51.2585,-80.6094,-18.69,3.56
Santa Maria,0,BR,2022-02-11 06:04:04,91,-29.6842,-53.8069,65.23,6.29
Novyi Yarychiv,88,UA,2022-02-11 06:04:05,89,49.9044,24.3052,42.15,11.68
Touho,98,NC,2022-02-11 06:04:05,82,-20.7833,165.2333,82.87,22.26
São João da Barra,100,BR,2022-02-11 06:04:06,98,-21.6403,-41.0511,71.51,6.2
Provideniya,16,RU,2022-02-11 06:04:06,93,64.3833,-173.3,-19.52,8.97
Rockport,0,US,2022-02-11 06:04:07,92,28.0206,-97.0544,57.97,5.75
Linqiong,97,CN,2022-02-11 06:04:07,59,30.4159,103.4609,49.17,4.74
Ambulu,100,ID,2022-02-11 06:04:08,67,-8.345,113.6058,84.99,5.37
Parfino,100,RU,2022-02-11 06:04:08,95,57.9731,31.6481,30.74,9.22
Nānākuli,100,US,2022-02-11 06:04:09,68,21.3906,-158.1547,75.15,5.75
Kargil,87,IN,2022-02-11 06:04:09,86,34.5667,76.1,-8.84,2.39
Iqaluit,100,CA,2022-02-11 06:04:10,70,63.7506,-68.5145,0.7,4.0
La Libertad,57,EC,2022-02-11 06:04:10,76,-2.2333,-80.9,75.11,7.2
Inuvik,74,CA,2022-02-11 06:04:11,99,68.3499,-133.7218,-19.37,0.34
Nakhon Si Thammarat,94,TH,2022-02-11 06:04:11,62,8.25,100.0,95.45,10.96
Margate,6,GB,2022-02-11 06:04:12,88,51.3813,1.3862,36.7,13.22
Anadyr,0,RU,2022-02-11 06:01:11,75,64.75,177.4833,-25.1,6.71
Kambia,3,SL,2022-02-11 06:04:13,95,9.1167,-12.9167,69.62,2.28
Snåase,100,NO,2022-02-11 06:04:13,82,64.2457,12.3778,27.81,10.67
Ambanja,100,MG,2022-02-11 06:04:14,84,-13.6833,48.45,79.57,1.34
Makakilo City,100,US,2022-02-11 06:03:38,71,21.3469,-158.0858,73.72,8.05
Zhezkazgan,75,KZ,2022-02-11 06:04:14,86,47.8043,67.7144,21.18,17.9
Aksu,0,CN,2022-02-11 06:04:15,24,41.1231,80.2644,34.47,0.63
Salinópolis,100,BR,2022-02-11 06:04:16,88,-0.6136,-47.3561,77.07,7.0
Ann Arbor,20,US,2022-02-11 05:57:39,78,42.2776,-83.7409,29.59,13.8
Karlstad,44,SE,2022-02-11 06:03:34,80,59.3793,13.5036,25.36,5.75
Port Macquarie,30,AU,2022-02-11 06:02:06,59,-31.4333,152.9167,79.9,13.94
Kavieng,95,PG,2022-02-11 06:04:17,73,-2.5744,150.7967,82.8,5.41
Deputatsky,100,RU,2022-02-11 06:04:18,91,69.3,139.9,-9.08,4.14
Pine Bluff,0,US,2022-02-11 06:04:18,75,34.2284,-92.0032,44.71,3.44
Linjiang,96,CN,2022-02-11 06:04:19,85,41.8069,126.9078,32.0,8.43
Benguela,99,AO,2022-02-11 06:04:19,66,-12.5763,13.4055,75.2,3.62
Sisimiut,100,GL,2022-02-11 06:04:20,76,66.9395,-53.6735,15.4,14.65
Arcata,0,US,2022-02-11 06:04:20,93,40.8665,-124.0828,54.79,0.0
Yarmouth,0,US,2022-02-11 06:04:21,84,41.7057,-70.2286,40.14,4.61
Xihe,98,CN,2022-02-11 06:04:21,53,31.6864,113.4659,50.92,7.05
Arica,26,CL,2022-02-11 06:04:22,82,-18.475,-70.3042,67.55,2.44
Banda Aceh,52,ID,2022-02-11 06:04:22,67,5.5577,95.3222,84.92,5.1
Tarskoye,53,RU,2022-02-11 06:04:22,70,42.967,44.7711,26.85,2.86
Wenzhou,100,CN,2022-02-11 06:02:04,86,27.9994,120.6668,48.85,1.77
Saint-Pierre,75,RE,2022-02-11 06:00:40,74,-21.3393,55.4781,82.08,5.75
Prince Rupert,44,CA,2022-02-11 06:04:23,86,54.3161,-130.3201,33.26,5.12
Teya,30,RU,2022-02-11 06:04:24,82,60.3778,92.6267,3.99,2.77
Aasiaat,100,GL,2022-02-11 06:04:24,93,68.7098,-52.8699,-4.14,11.95
Kununurra,49,AU,2022-02-11 06:04:25,41,-15.7667,128.7333,98.58,11.5
Sassandra,56,CI,2022-02-11 06:04:25,93,4.95,-6.0833,76.59,2.86
Semeykino,98,UA,2022-02-11 06:04:26,94,48.3264,39.5337,34.32,7.78
Avera,30,US,2022-02-11 06:04:26,57,33.194,-82.5271,53.47,5.37
Kirensk,98,RU,2022-02-11 06:04:26,88,57.7853,108.1119,-6.47,2.26
Rantepao,100,ID,2022-02-11 06:04:27,80,-2.9701,119.8978,76.23,2.3
Nome,0,US,2022-02-11 06:04:27,76,64.5011,-165.4064,-18.33,3.44
Kungurtug,30,RU,2022-02-11 06:04:28,85,50.5994,97.5228,-5.08,1.83
Bāglung,19,NP,2022-02-11 06:01:50,44,28.2719,83.5898,59.99,5.91
Bahir Dar,36,ET,2022-02-11 06:01:03,49,11.5936,37.3908,69.42,3.09
Kalmunai,64,LK,2022-02-11 06:04:29,67,7.4167,81.8167,83.86,6.38
Abnūb,4,EG,2022-02-11 06:04:29,56,27.2696,31.1511,50.97,5.46
Ozernovskiy,100,RU,2022-02-11 06:04:30,80,51.5,156.5167,26.17,0.63
Saint-Philippe,52,RE,2022-02-11 06:04:30,76,-21.3585,55.7679,81.99,6.82
Vaitape,28,PF,2022-02-11 06:04:31,72,-16.5167,-151.75,81.63,13.69
Belyy Yar,89,RU,2022-02-11 06:03:40,72,53.6039,91.3903,-9.51,0.0
Beauraing,47,BE,2022-02-11 06:04:31,94,50.1104,4.9555,36.86,6.96
El Carmen,33,CO,2022-02-11 06:04:32,88,8.5106,-73.4478,66.65,4.65
Sawākin,100,SD,2022-02-11 06:04:33,69,19.1059,37.3321,69.69,15.73
Cartagena,32,CO,2022-02-11 06:00:46,85,10.3997,-75.5144,77.45,13.78
Kurisove,55,UA,2022-02-11 06:04:33,85,46.9695,30.9591,37.85,9.91
Kahului,75,US,2022-02-11 06:04:34,83,20.8947,-156.47,73.85,11.5
Hoi An,50,VN,2022-02-11 06:04:34,83,15.8794,108.335,80.56,8.63
New Albany,40,US,2022-02-11 06:02:58,70,38.2856,-85.8241,37.27,6.91
Ko Samui,90,TH,2022-02-11 06:04:35,77,9.5357,99.9357,81.21,11.81
Bontang,99,ID,2022-02-11 06:04:35,90,0.1333,117.5,76.17,2.8
Hirado,77,JP,2022-02-11 06:04:36,50,33.3597,129.5531,52.39,13.89
Khartoum,1,SD,2022-02-11 06:04:36,28,15.5518,32.5324,63.01,3.0
Januária,100,BR,2022-02-11 06:04:37,98,-15.4833,-44.3667,67.87,3.02
Verkhnetulomskiy,82,RU,2022-02-11 06:04:37,99,68.6073,31.7962,4.26,2.98
Fort Nelson,62,CA,2022-02-11 06:04:38,97,58.8053,-122.7002,-1.26,3.78
Manono,100,CD,2022-02-11 06:04:39,92,-7.3,27.4167,69.6,2.62
Halifax,36,CA,2022-02-11 06:04:34,93,44.6453,-63.5724,38.68,7.0
Arrondissement de Saint-Denis,0,FR,2022-02-11 06:04:39,91,48.9167,2.3333,37.15,6.91
Kasongo-Lunda,91,CD,2022-02-11 06:04:40,92,-6.4667,16.8167,71.1,0.11
Henties Bay,84,NA,2022-02-11 06:04:40,88,-22.116,14.2845,69.15,4.45
Rtishchevo,99,RU,2022-02-11 06:04:41,94,52.2604,43.7874,21.9,8.66
Nanortalik,100,GL,2022-02-11 06:04:41,67,60.1432,-45.2371,27.18,3.49
Paamiut,100,GL,2022-02-11 06:04:42,70,61.994,-49.6678,16.65,9.86
Cabo San Lucas,89,MX,2022-02-11 06:04:14,69,22.8909,-109.9124,68.5,1.01
Necochea,100,AR,2022-02-11 06:04:43,91,-38.5473,-58.7368,62.04,13.8
Manicoré,100,BR,2022-02-11 06:04:43,98,-5.8092,-61.3003,72.64,1.81
Bitkine,76,TD,2022-02-11 06:04:43,14,11.9801,18.2138,65.44,4.56
Kuala Terengganu,100,MY,2022-02-11 06:04:44,91,5.3302,103.1408,75.04,4.59
Surgut,20,RU,2022-02-11 06:04:44,76,61.25,73.4167,-4.92,8.99
La Rioja,77,ES,2022-02-11 06:04:45,82,42.25,-2.5,33.58,3.02
Yerbogachën,93,RU,2022-02-11 06:04:45,88,61.2767,108.0108,-3.35,5.3
Lingao,88,CN,2022-02-11 06:04:46,73,19.9103,109.6859,74.8,13.56
Ayagoz,99,KZ,2022-02-11 06:04:46,94,47.9714,80.4392,5.77,3.09
Port Lincoln,22,AU,2022-02-11 06:00:42,52,-34.7333,135.8667,70.2,12.68
Moba,37,CN,2022-02-11 06:04:47,60,33.2288,105.0179,35.06,4.5
Lakes Entrance,4,AU,2022-02-11 06:04:47,69,-37.8811,147.981,73.58,13.33
Witbank,45,ZA,2022-02-11 06:01:34,45,-25.8713,29.2332,69.48,2.75
Kuril'sk,96,RU,2022-02-11 06:04:48,72,45.2333,147.8833,24.55,6.11
Wonosobo,94,ID,2022-02-11 06:04:48,97,-7.36,109.9025,78.6,2.77
Kemijärvi,92,FI,2022-02-11 06:04:49,98,66.7131,27.4306,9.19,2.95
Makurdi,0,NG,2022-02-11 06:04:49,13,7.7411,8.5121,70.61,3.06
Wadi Maliz,0,TN,2022-02-11 06:04:50,46,36.4681,8.5495,44.24,3.18
Sobolevo,100,RU,2022-02-11 06:04:50,99,54.4299,31.8996,30.97,4.88
Kargopol',100,RU,2022-02-11 06:04:51,92,61.5071,38.9456,26.67,6.13
Muscat,0,OM,2022-02-11 06:04:18,51,23.6139,58.5922,75.22,0.47
Adré,0,TD,2022-02-11 06:04:51,24,13.4667,22.2,57.63,17.6
Atlantic City,75,US,2022-02-11 06:02:56,75,39.3643,-74.4229,44.98,0.0
Lufilufi,17,WS,2022-02-11 06:04:52,81,-13.8745,-171.5986,81.79,12.53
Rocha,0,UY,2022-02-11 06:04:53,95,-34.4833,-54.3333,62.92,5.26
Bilma,0,NE,2022-02-11 06:04:53,27,18.6853,12.9164,55.65,7.78
Weston,100,US,2022-02-11 06:02:49,91,26.1004,-80.3998,73.42,3.44
Marsh Harbour,60,BS,2022-02-11 06:00:14,79,26.5412,-77.0636,72.72,11.81
Asău,100,RO,2022-02-11 06:04:54,88,46.4333,26.4,38.39,7.11
Kisangani,91,CD,2022-02-11 06:00:28,70,0.5167,25.2,77.0,3.44
Banjarmasin,100,ID,2022-02-11 06:04:55,57,-3.3244,114.591,82.54,4.29
Araouane,38,ML,2022-02-11 06:04:55,28,18.9048,-3.5265,58.3,14.94
Aksarka,95,RU,2022-02-11 06:04:56,87,66.5606,67.7975,3.65,16.75
Mahina,20,PF,2022-02-11 06:04:57,69,-17.5065,-149.489,82.17,3.44
Sambava,12,MG,2022-02-11 06:04:57,72,-14.2667,50.1667,81.46,5.41
Nizwá,0,OM,2022-02-11 06:04:41,35,22.9333,57.5333,69.8,2.89
Iranshahr,0,IR,2022-02-11 06:04:58,30,27.2025,60.6848,66.92,2.3
Iturama,100,BR,2022-02-11 06:04:58,92,-19.7281,-50.1956,70.74,4.41
Pedernales,3,DO,2022-02-11 06:04:59,69,18.0384,-71.744,75.09,6.33
Mae Sot,2,TH,2022-02-11 06:04:59,23,16.7167,98.5667,93.83,5.46
Williamsburg,0,US,2022-02-11 06:05:00,58,37.2707,-76.7075,51.55,8.05
Hakkâri Province,75,TR,2022-02-11 06:05:00,100,37.5833,44.1667,15.58,0.0
Lagoa,99,PT,2022-02-11 06:05:01,68,39.05,-27.9833,59.04,8.97
Chopovychi,70,UA,2022-02-11 06:05:01,89,50.8332,28.9533,36.05,12.82
General Roca,36,AR,2022-02-11 06:05:02,23,-39.0333,-67.5833,63.0,13.06
Beibei,100,CN,2022-02-11 06:05:02,70,29.8256,106.4339,49.37,2.64
West Bay,9,KY,2022-02-11 06:05:03,87,19.3667,-81.4167,75.99,1.01
Savé,0,BJ,2022-02-11 06:05:03,80,8.0425,2.486,74.93,2.33
Alyangula,75,AU,2022-02-11 06:05:04,94,-13.8483,136.4192,76.87,9.22
Rørvik,75,NO,2022-02-11 06:05:04,93,64.8621,11.2373,28.51,10.36
Dzerzhinsk,100,RU,2022-02-11 06:05:05,80,56.2389,43.4631,31.82,8.95
Kayerkan,9,RU,2022-02-11 06:05:05,77,69.3497,87.7602,0.52,9.24
Ukiah,0,US,2022-02-11 06:05:06,68,39.1502,-123.2078,60.37,0.0
Alice Springs,0,AU,2022-02-11 06:05:06,43,-23.7,133.8833,96.22,12.66
Beloha,72,MG,2022-02-11 06:05:07,65,-25.1667,45.05,82.36,10.29
Savannah Bight,5,HN,2022-02-11 06:05:07,72,16.45,-85.85,73.0,3.15
Pisco,0,PE,2022-02-11 06:05:08,73,-13.7,-76.2167,71.65,5.75
Nador,0,MA,2022-02-11 06:05:08,87,35.174,-2.9287,48.45,2.3
Nhulunbuy,100,AU,2022-02-11 06:01:20,68,-12.2333,136.7667,85.86,8.55
Shingū,1,JP,2022-02-11 06:05:09,42,33.7333,135.9833,53.91,3.74
Port-Gentil,98,GA,2022-02-11 06:05:09,81,-0.7193,8.7815,80.49,10.51
Smolenka,83,RU,2022-02-11 06:05:10,55,52.1352,113.4974,1.47,8.95
Marsá Maţrūḩ,90,EG,2022-02-11 06:05:10,70,31.3525,27.2453,55.76,15.19
Ubari,0,LY,2022-02-11 06:05:10,63,26.5921,12.7805,42.57,7.94
Lampang,2,TH,2022-02-11 06:05:11,14,18.3333,99.5,96.33,2.04
Te Anau,32,NZ,2022-02-11 06:05:12,65,-45.4167,167.7167,66.51,6.11
Dandong,29,CN,2022-02-11 06:05:12,51,40.1292,124.3947,40.5,9.15
Itaituba,98,BR,2022-02-11 06:02:47,99,-4.2761,-55.9836,72.66,1.72
Wukari,25,NG,2022-02-11 06:05:13,17,7.85,9.7833,67.12,6.11
Emerald,0,AU,2022-02-11 06:05:13,23,-23.5333,148.1667,96.35,15.21
Iquitos,100,PE,2022-02-11 06:00:53,91,-3.7481,-73.2472,73.08,0.67
Kaeo,65,NZ,2022-02-11 06:01:23,94,-35.1,173.7833,78.33,8.08
Pocatello,0,US,2022-02-11 06:04:05,82,42.8713,-112.4455,37.47,8.05
Ankara,0,TR,2022-02-11 06:02:30,93,39.9199,32.8543,29.32,0.0
Sāveh,89,IR,2022-02-11 06:05:15,50,35.0213,50.3566,50.77,2.35
Morwa,1,IN,2022-02-11 06:05:15,20,22.9,73.8333,76.05,12.03
Novaya Ladoga,95,RU,2022-02-11 06:05:16,90,60.1025,32.3019,28.36,11.45
Flin Flon,99,CA,2022-02-11 06:05:16,92,54.7682,-101.865,-15.65,9.78
Wanaka,73,NZ,2022-02-11 06:04:01,58,-44.7,169.15,74.03,1.72
Tucupita,23,VE,2022-02-11 06:05:17,96,9.0622,-62.051,68.88,3.2
Kapra,17,IN,2022-02-11 06:05:18,57,17.4846,78.561,78.62,2.3
Anamur,0,TR,2022-02-11 06:05:18,43,36.0751,32.8369,44.62,5.95
Kichera,83,RU,2022-02-11 06:05:18,81,55.9375,110.0997,-2.22,1.21
Freeport,75,US,2022-02-11 06:04:30,64,40.6576,-73.5832,43.99,8.05
Nsanje,84,MW,2022-02-11 06:05:19,78,-16.92,35.262,78.26,4.23
Jalingo,43,NG,2022-02-11 06:05:20,15,8.8833,11.3667,68.27,4.41
Buenos Aires,0,AR,2022-02-11 06:04:31,71,-34.6132,-58.3772,75.96,9.22
Bayir,0,TR,2022-02-11 06:05:20,46,37.2687,28.2167,36.43,2.28
Salalah,40,OM,2022-02-11 06:05:21,53,17.0151,54.0924,77.09,5.75
Balyqshy,100,KZ,2022-02-11 06:05:21,100,47.0667,51.8667,32.0,13.42
São José do Rio Preto,100,BR,2022-02-11 06:04:56,96,-20.8197,-49.3794,68.16,5.88
Key West,0,US,2022-02-11 06:03:40,79,24.5557,-81.7826,69.8,9.22
Juigalpa,9,NI,2022-02-11 06:05:22,87,12.1063,-85.3645,71.58,8.59
Ullapool,44,GB,2022-02-11 06:05:23,81,57.8987,-5.1604,37.35,7.83
Lanipao,100,PH,2022-02-11 06:05:23,64,7.9553,123.7767,86.36,7.61
Novyy Urgal,100,RU,2022-02-11 06:05:24,83,51.0736,132.5642,11.66,0.67
Nouadhibou,80,MR,2022-02-11 06:05:24,48,20.931,-17.0347,69.17,14.16
Tabas,0,IR,2022-02-11 06:05:25,22,33.5959,56.9244,59.68,5.95
Dingle,99,PH,2022-02-11 06:05:25,73,10.9995,122.6711,81.93,14.99
Puri,12,IN,2022-02-11 06:02:31,56,19.8,85.85,77.52,4.47
Kiryat Gat,39,IL,2022-02-11 06:05:26,100,31.61,34.7642,51.78,1.43
‘Āhuimanu,75,US,2022-02-11 06:05:26,83,21.4447,-157.8378,74.91,8.05
Deep River,71,CA,2022-02-11 06:05:27,98,46.1001,-77.4995,14.68,2.01
Talcahuano,0,CL,2022-02-11 06:05:27,55,-36.7167,-73.1167,58.78,9.93
Saurimo,100,AO,2022-02-11 06:05:28,92,-9.6608,20.3916,65.35,2.33
Chateaubelair,8,VC,2022-02-11 06:05:28,74,13.2833,-61.25,72.28,14.29
Bārmer,0,IN,2022-02-11 06:05:29,21,25.75,71.3833,72.43,7.09
North Bend,75,US,2022-02-11 06:05:29,98,43.4065,-124.2243,46.85,6.91
San Cristobal,73,VE,2022-02-11 06:05:30,92,7.7669,-72.225,64.51,2.82
Dudinka,12,RU,2022-02-11 06:05:30,86,69.4058,86.1778,1.62,19.37
San Angelo,0,US,2022-02-11 06:03:33,46,31.4638,-100.437,47.53,4.61
Hofn,46,IS,2022-02-11 06:01:11,59,64.2539,-15.2082,28.36,11.16
Sindgi,23,IN,2022-02-11 06:05:31,37,16.9167,76.2333,82.26,12.62
Naze,42,JP,2022-02-11 06:05:32,56,28.3667,129.4833,58.42,9.98
Port Moresby,90,PG,2022-02-11 06:03:13,57,-9.4431,147.1797,84.2,12.77
Beringovskiy,28,RU,2022-02-11 06:05:32,96,63.05,179.3167,-26.36,8.21
Nizhnyaya Tavda,39,RU,2022-02-11 06:05:33,81,57.6731,66.1725,0.57,11.43
Rafsanjān,0,IR,2022-02-11 06:05:33,14,30.4067,55.9939,56.7,2.95
Ihosy,79,MG,2022-02-11 06:03:35,75,-22.4,46.1167,74.1,5.5
Hay River,100,CA,2022-02-11 06:00:39,98,60.8156,-115.7999,-2.49,8.43
